[{"lat":"34.9299408","lng":"-95.7579756","id":1403834,"name":"BEMAC SUPPLY","address":"836 E. CARL ALBERT PKWY","country":"USA","state":"OK","city":"MCALESTER","postal":"74501"},{"lat":"43.0319095","lng":"-88.2318934","id":1403835,"name":"OLSEN SAFETY EQUIPMENT CORP.","address":"2120 AIRPORT ROAD","country":"USA","state":"WI","city":"WAUKESHA","postal":"53188"},{"lat":"43.4918599","lng":"-112.0493266","id":1403836,"name":"BONNEVILLE INDUSTRIAL SUPPLY C","address":"515 S UTAH AVENUE","country":"USA","state":"ID","city":"IDAHO FALLS","postal":"83402"},{"lat":"42.9704015","lng":"-83.6808819","id":1403837,"name":"MID-STATES BOLT & SCREW CO.","address":"4126 SOMERS DR.","country":"USA","state":"MI","city":"BURTON","postal":"48529"},{"lat":"27.8992579","lng":"-81.9921554","id":1403838,"name":"E & W TOOL AND SUPPLY, INC.","address":"465 FIFE ROAD","country":"USA","state":"FL","city":"MULBERRY","postal":"33860"},{"lat":"43.392199","lng":"-80.467389","id":1403839,"name":"WEBER SUPPLY CO.","address":"1830 STRASBURG ROAD","country":"CANADA","state":"ON","city":"KITCHENER","postal":"N2R 1E9"},{"lat":"44.178433","lng":"-72.508536","id":1403840,"name":"REYNOLDS & SON, INC.","address":"47 BRIDGE STREET","country":"USA","state":"VT","city":"SOUTH BARRE","postal":"5670"},{"lat":"32.7661417","lng":"-96.6066641","id":1403841,"name":"STANDARD INDUSTRIAL SUPPLY","address":"700 MILITARY PARKWAY","country":"USA","state":"TX","city":"MESQUITE","postal":"75149"},{"lat":"61.1680344","lng":"-149.8670118","id":1403842,"name":"ALASKA RUBBER & RIGGING SUPPLY","address":"5811 OLD SEWARD HWY","country":"USA","state":"AK","city":"ANCHORAGE","postal":"99518"},{"lat":"42.1053873","lng":"-87.9085025","id":1403843,"name":"DOALL (DGI) US","address":"1480 SOUTH WOLF ROAD\nATTN: ACCOUNTS PAYABLE","country":"USA","state":"IL","city":"WHEELING","postal":"60090"},{"lat":"39.2458111","lng":"-84.4734969","id":1403844,"name":"FOX SAFETY","address":"80 NOVNER DRIVE","country":"USA","state":"OH","city":"CINCINNATI","postal":"45215"},{"lat":"45.4230958","lng":"-73.9658829","id":1403845,"name":"TENAQUIP \/ SCN","address":"22555 AUT TRANSCANADIENNE\nMTL MONTREAL","country":"CANADA","state":"QC","city":"SENNEVILLE","postal":"H9X 3L7"},{"lat":"40.3236165","lng":"-80.0427517","id":1403846,"name":"PLANT SERVICE COMPANY","address":"5360 PROGRESS BLVD","country":"USA","state":"PA","city":"BETHEL PARK","postal":"15102"},{"lat":"34.2236304","lng":"-92.0194042","id":1403847,"name":"JEFFERSON SUPPLY COMPANY","address":"600 SOUTH PLUM STREET","country":"USA","state":"AR","city":"PINE BLUFF","postal":"71611"},{"lat":"45.5016889","lng":"-73.567256","id":1403848,"name":"LE GROUP JSV INC.","address":"8015 MARCO - POLO","country":"CANADA","state":"QC","city":"MONTREAL","postal":"HIE 5Y8"},{"lat":"44.9509221","lng":"-93.1712983","id":1403849,"name":"TOTAL TOOL SUPPLY INC, - MN","address":"315 NORTH PIERCE STREET","country":"USA","state":"MN","city":"ST PAUL","postal":"55104"},{"lat":"32.7026175","lng":"-83.637711","id":1403850,"name":"PRODUCTION TOOL & TECH. MACON GA","address":"8410 FEAGIN RD","country":"USA","state":"GA","city":"MACON","postal":"31216"},{"lat":"43.0098135","lng":"-88.2229794","id":1403851,"name":"L.W. MEYER, INC.","address":"P.O BOX 557","country":"USA","state":"WI","city":"WAUKESHA","postal":"53187-0557"},{"lat":"36.701787","lng":"-101.4837763","id":1403852,"name":"BEARING & ALLIED SUPPLY CO","address":"2155 HIGHWAY 64 NORTH","country":"USA","state":"OK","city":"GUYMON","postal":"73942"},{"lat":"38.2380269","lng":"-85.7576525","id":1403853,"name":"AMERICAN INDUSTRIAL RUBBER","address":"1017 SO. 3RD STREET","country":"USA","state":"KY","city":"LOUISVILLE","postal":"40203"},{"lat":"46.8034586","lng":"-100.7570366","id":1403854,"name":"NORTHWEST IND SPLY-BISMARCK","address":"2228 E FRONT AVE","country":"USA","state":"ND","city":"BISMARCK","postal":"58504"},{"lat":"42.2751483","lng":"-71.7996539","id":1403855,"name":"WAITES CO., INC.","address":"100 PRESCOTT STREET","country":"USA","state":"MA","city":"WORCESTER","postal":"1605"},{"lat":"28.1120882","lng":"-80.6721817","id":1403856,"name":"ABOLOX LLC","address":"401 N. WICKHAM RD STE. 133","country":"USA","state":"FL","city":"MELBOURNE","postal":"329335"},{"lat":"41.6776334","lng":"-81.3666227","id":1403857,"name":"C R SUPPLY, LLC","address":"7661 OHIO STREET","country":"USA","state":"OH","city":"MENTOR","postal":"44060"},{"lat":"44.8446855","lng":"-93.1297446","id":1403858,"name":"JOHN HENRY FOSTER MINNESOTA","address":"3103 MIKE COLLINS DRIVE","country":"USA","state":"MN","city":"EAGAN","postal":"55121"},{"lat":"40.2409443","lng":"-83.3898604","id":1403859,"name":"MCAULIFFE'S INDUSTRIAL","address":"1297 WEST 5TH STREET","country":"USA","state":"OH","city":"MARYSVILLE","postal":"43040"},{"lat":"36.5274287","lng":"-82.3913739","id":1403860,"name":"PIONEER INDUSTRIAL SALES LLC","address":"272 INDUSTRIAL PRIVATE DR","country":"USA","state":"TN","city":"BLOUNTVILLE","postal":"37617"},{"lat":"41.5750983","lng":"-90.5599873","id":1403861,"name":"QUAD CITY SAFETY INC","address":"5311 TREMONT  AVE","country":"USA","state":"IA","city":"DAVENPORT","postal":"52807"},{"lat":"36.3061747","lng":"-83.0311196","id":1403862,"name":"TED'S SUPPLY","address":"1767 HIGHWAY 66 SOUTH","country":"USA","state":"TN","city":"BULLS GAP","postal":"37711"},{"lat":"39.267364","lng":"-84.358898","id":1403863,"name":"BLUE ASH IND. SUPPLY INC.","address":"6909 CORNELL ROAD","country":"USA","state":"OH","city":"CINCINNATI","postal":"45242"},{"lat":"41.2616001","lng":"-73.004513","id":1403864,"name":"COLONY HARDWARE CORP","address":"269 SOUTH LAMBERT ROAD","country":"USA","state":"CT","city":"ORANGE","postal":"6477"},{"lat":"41.9830797","lng":"-87.845383","id":1403865,"name":"LAWSON PRODUCTS","address":"8770 W BRYN MAWR AVE","country":"USA","state":"IL","city":"CHICAGO","postal":"60631-3515"},{"lat":"61.2207244","lng":"-149.8320267","id":1403866,"name":"TOTEM EQUIPMENT & SUPPLY","address":"2536 COMMERCIAL DRIVE","country":"USA","state":"AK","city":"ANCHORAGE","postal":"99501"},{"lat":"32.5285261","lng":"-84.8863906","id":1403867,"name":"COLUMBUS INDUSTRIAL SUPPLY","address":"5900 COCA COLA BLVD.","country":"USA","state":"GA","city":"COLUMBUS","postal":"31909"},{"lat":"40.2780174","lng":"-79.5513875","id":1403868,"name":"WAREHOUSE RENTALS, THE (RJ REPCO )","address":"1335 SOUTH MAIN STREET","country":"USA","state":"PA","city":"GREENSBURG","postal":"15601"},{"lat":"30.3484972","lng":"-91.0219003","id":1403869,"name":"MONROE RUBBER & GASKET CO., INC.","address":"18320 PETROLEUM DR","country":"USA","state":"LA","city":"BATON ROUGE","postal":"70809"},{"lat":"43.1876653","lng":"-88.0862596","id":1403870,"name":"ENGMAN-TAYLOR COMPANY, INC.","address":"W142 N9351 FOUNTAIN BLVD","country":"USA","state":"WI","city":"MENOMONEE FALLS","postal":"53051"},{"lat":"42.6334075","lng":"-73.7444435","id":1403871,"name":"WALTER S. PRATT & SONS INC.","address":"317 COLUMBIA STREET","country":"USA","state":"NY","city":"RENSSELAER","postal":"12144"},{"lat":"44.08362","lng":"-103.2593589","id":1403872,"name":"CONTRACTORS SUPPLY","address":"2413 W OMAHA ST","country":"USA","state":"SD","city":"RAPID CITY","postal":"57702"},{"lat":"19.4360762","lng":"-99.0719083","id":1403873,"name":"LEON WEILL S.A. DE C.V","address":"LEON WEILL,S.A AEROPUERTO\nINTERNACTIONAL BENITO JUAREZ","country":"MEXICO","city":"MEXICO, DF"},{"lat":"35.4671319","lng":"-97.5483514","id":1403874,"name":"KP SUPPLY COMPANY LLC","address":"5 NORTH PENNSYLVANIA AVE","country":"USA","state":"OK","city":"OKLAHOMA CITY","postal":"73107"},{"lat":"32.699123","lng":"-114.5959996","id":1403875,"name":"YUMA FARM & HOME SUPPLY","address":"2222 E 16TH STREET","country":"USA","state":"AZ","city":"YUMA","postal":"85365"},{"lat":"34.8429533","lng":"-82.3609527","id":1403876,"name":"CMT INDUSTRIAL SOLUTIONS","address":"PO BOX 16629","country":"USA","state":"SC","city":"GREENVILLE","postal":"29606"},{"lat":"34.8714323","lng":"-85.8162496","id":1403877,"name":"SOUTHEASTERN SUPPLY","address":"224 ADAMS STREET","country":"USA","state":"AL","city":"STEVENSON","postal":"35772"},{"lat":"43.5092484","lng":"-79.6846335","id":1403878,"name":"DOALL (DGI) CANADA","address":"2-2715 BRISTOL CIRCLE","country":"CANADA","state":"ON","city":"OAKVILLE","postal":"L6H 6X5"},{"lat":"33.0146603","lng":"-85.0672602","id":1403879,"name":"EQUIPMENT SALES & SERVICE CORP.","address":"1655 LUKKEN INDUSTRIAL DRIVE W","country":"USA","state":"GA","city":"LAGRANGE","postal":"30240-5739"},{"lat":"40.95998","lng":"-81.4720532","id":1403880,"name":"TECH TOOL AKRON, INC.","address":"1549 BOETTLER RD E","country":"USA","state":"OH","city":"UNIONTOWN","postal":"44685"},{"lat":"47.4814497","lng":"-92.8789799","id":1403881,"name":"MINNESOTA INDUSTRIES INC.","address":"BOX 31\n610 WEST DRIVE IND. PARK","country":"USA","state":"MN","city":"CHISHOLM","postal":"55719"},{"lat":"49.7121561","lng":"-112.7953776","id":1403882,"name":"HAGEMEYER CANADA \/ VALLEN","address":"3004-9 AVENUE NORTH","country":"CANADA","state":"AB","city":"LETHBRIDGE","postal":"T1H 5E5"},{"lat":"39.981013","lng":"-76.7584499","id":1403883,"name":"TRANSPLY INC","address":"1005 VOGELSONG ROAD","country":"USA","state":"PA","city":"YORK","postal":"17404"},{"lat":"42.4696954","lng":"-83.3895016","id":1403884,"name":"EXOTIC AUTOMATION & SUPPLY","address":"34700 GRAND RIVER AVE","country":"USA","state":"MI","city":"FARMINGTON HILLS","postal":"48335-3375"},{"lat":"35.472685","lng":"-81.257363","id":1403885,"name":"CAROLINA ROLLER & SUPPLY CO INC.","address":"214 NORTH ASPEN STREET","country":"USA","state":"NC","city":"LINCOLNTON","postal":"28092"},{"lat":"33.7809652","lng":"-118.2096667","id":1403886,"name":"ALLIED PACK'G & RUB, INC.LONGBEACH","address":"1335 WEST 11TH ST","country":"USA","state":"CA","city":"LONG BEACH","postal":"90813"},{"lat":"51.8561502","lng":"4.2972181","id":1403887,"name":"METROLOGY TECHNIQUES LIMITED","address":"P.O. BOX 10-024","country":"NETHERLANDS","city":"SPIJKENISSE","postal":"3200"},{"lat":"34.9906731","lng":"-85.2909181","id":1403888,"name":"WALTER A. WOOD SUPPLY CO.,INC.","address":"4509 ROSSVILLE BLVD.","country":"USA","state":"TN","city":"CHATTANOOGA","postal":"37407"},{"lat":"41.9702161","lng":"-87.9518658","id":1403889,"name":"INDUSTRY RAILWAY SUPPLIER, INC","address":"811 GOLF LANE\nATTN A\/P LILIANA CHAVEZ","country":"USA","state":"IL","city":"BENSENVILLE","postal":"60106"},{"lat":"32.8292366","lng":"-83.6296922","id":1403890,"name":"MID-GEORGIA INDUSTRIAL SALES","address":"357 OAK STREET","country":"USA","state":"GA","city":"MACON","postal":"31201"},{"lat":"36.7411646","lng":"-76.271468","id":1403891,"name":"WOODCRAFT","address":"861 HARDWOOD DRIVE","country":"USA","state":"VA","city":"CHESAPEAKE","postal":"23320"},{"lat":"43.7678445","lng":"-79.6191535","id":1403892,"name":"GUILLEVIN INTERNATIONAL, INC.","address":"1 ROYAL GATE BLVD  UNIT C","country":"CANADA","state":"ON","city":"VAUGHN","postal":"L4L 8Z7"},{"lat":"37.7605119","lng":"-90.4479205","id":1403893,"name":"US TOOL GROUP","address":"2000 PROGRESS DRIVE","country":"USA","state":"MO","city":"FARMINGTON","postal":"63640"},{"lat":"27.7851187","lng":"-97.4471782","id":1403894,"name":"SHEINBERG TOOL CO., INC.","address":"4575 AGNES STREET","country":"USA","state":"TX","city":"CORPUS CHRISTI","postal":"78405"},{"lat":"43.6267348","lng":"-79.6361663","id":1403895,"name":"PNEUMATIC INDUSTRIAL EQUIPMENT - PIECO","address":"5035 TIMBERLEA BLVD\nUNIT 8\nCOUNTRY OF ORIGIN USA","country":"CANADA","state":"ON","city":"MISSISSAUGA","postal":"L4W 2W9"},{"lat":"29.6339513","lng":"-95.5780147","id":1403896,"name":"COMPREHENSIVE IND EQUIP INC","address":"12807 ROYAL DRIVE\nSUITE 105","country":"USA","state":"TX","city":"STAFFORD","postal":"77477"},{"lat":"40.1031683","lng":"-74.8417577","id":1403897,"name":"SDI, INC.","address":"1414 RADCLIFFE ST, SUITE 300","country":"USA","state":"PA","city":"BRISTOL","postal":"19007"},{"lat":"31.2271163","lng":"-82.3692175","id":1403898,"name":"GENERAL BEARING & INDUSTRIAL SUPPLY","address":"1301 GENOA STREET","country":"USA","state":"GA","city":"WAYCROSS","postal":"31501-6740"},{"lat":"43.047008","lng":"-83.749109","id":1403899,"name":"JAMES GLOVE & SUPPLY CO, INC","address":"3422 W PASADENA AVE","country":"USA","state":"MI","city":"FLINT","postal":"48504"},{"lat":"30.6114132","lng":"-96.3133241","id":1403900,"name":"UNITED RENTALS - OR, WA","address":"2301 S TEXAS AVE","country":"USA","state":"TX","city":"COLLEGE STATION","postal":"77840"},{"lat":"41.915735","lng":"-87.924555","id":1403901,"name":"MCMASTER-CARR SUPPLY CO.","address":"600 N COUNTY LINE RD","country":"USA","state":"IL","city":"ELMHURST","postal":"60126-2081"},{"lat":"38.1335067","lng":"-121.2541418","id":1403902,"name":"PLUG-IT PRODUCTS","address":"940 EAST PINE STREET","country":"USA","state":"CA","city":"LODI","postal":"95240"},{"lat":"41.9245003","lng":"-87.6792307","id":1403903,"name":"FIELD TOOL SUPPLY COMPANY","address":"2358 N. SEELEY AVE","country":"USA","state":"IL","city":"CHICAGO","postal":"60647"},{"lat":"1.354545","lng":"103.878457","id":1403904,"name":"ZESTEC INTEGRATED PTE LTD","address":"767 UPPER SERANGOON ROAD\n#02-04 SPAZIO @ KOVAN","country":"SINGAPORE","city":"SINGAPORE","postal":"534635"},{"lat":"29.840737","lng":"-95.501103","id":1403905,"name":"GROVES INDUSTRIAL SUPPLY","address":"7301 PINEMONT","country":"USA","state":"TX","city":"HOUSTON","postal":"77040"},{"lat":"41.6145577","lng":"-93.5905238","id":1403906,"name":"PEERLESS SUPPLY INC","address":"P.O. BOX 3307\n1701 GUTHRIE AVENUE","country":"USA","state":"IA","city":"DES MOINES","postal":"50316-3307"},{"lat":"33.7850144","lng":"-118.1984284","id":1403907,"name":"DIAMOND U INC","address":"1429 MAGNOLIA AVE","country":"USA","state":"CA","city":"LONG BEACH","postal":"90813"},{"lat":"32.5401627","lng":"-93.6851044","id":1403908,"name":"C & W FIRE AND SAFETY, INC.","address":"1327 DRIFTWOOD DR (REAR)","country":"USA","state":"LA","city":"BOSSIER CITY","postal":"71111"},{"lat":"40.2504708","lng":"-75.2893748","id":1403909,"name":"KSG INDUSTRIAL SUPPLIES, INC","address":"805 WEST FIFTH STREET","country":"USA","state":"PA","city":"LANSDALE","postal":"19446"},{"lat":"33.4326442","lng":"-91.0403703","id":1403910,"name":"MILL SUPPLIES, INC (MSI)","address":"1398 HWY 1 N","country":"USA","state":"MS","city":"GREENVILLE","postal":"38703"},{"lat":"42.8482624","lng":"-78.7559451","id":1403911,"name":"GEMCOR","address":"100 GEMCOR DRIVE","country":"USA","state":"NY","city":"WEST SENECA","postal":"14224"},{"lat":"35.753057","lng":"-79.80509","id":1403912,"name":"CORE SUPPLY LLC","address":"1954 FAYETTEVILLE STREET","country":"USA","state":"NC","city":"ASHEBORO","postal":"27203"},{"lat":"37.2733769","lng":"-80.0362681","id":1403913,"name":"SALEM TOOLS, INC.","address":"1602 MIDLAND ROAD\nDOOR #3","country":"USA","state":"VA","city":"SALEM","postal":"24153"},{"lat":"36.0723391","lng":"-95.808604","id":1403914,"name":"BLACKHAWK INDUSTRIAL -CORP OFFICE","address":"1501 SW EXPRESSWAY DRIVE","country":"USA","state":"OK","city":"BROKEN ARROW","postal":"74012"},{"lat":"35.77979","lng":"-90.7967","id":1403915,"name":"VALLEY VIEW AGRI SYSTEMS, INC","address":"8304 HIGHWAY 49 ST","country":"USA","state":"AR","city":"JONESBORO","postal":"72404"},{"lat":"42.8793719","lng":"-85.6849738","id":1403916,"name":"KENT RUBBER SUPPLY CO.","address":"4655 CLYDE PARK SW","country":"USA","state":"MI","city":"GRAND RAPIDS","postal":"49509"},{"lat":"39.3054986","lng":"-94.6839865","id":1403917,"name":"WHEATBELT, INC","address":"11721 NW PLAZA CIRCLE","country":"USA","state":"MO","city":"KANSAS CITY","postal":"64153"},{"lat":"35.9936139","lng":"-83.9414461","id":1403918,"name":"LIFT TRUCK SALES & SERVICE","address":"201 VAN HUSS AVE","country":"USA","state":"TN","city":"KNOXVILLE","postal":"37917"},{"lat":"33.5658265","lng":"-101.8366553","id":1403919,"name":"TEXAS TOOL & EQUIPMENT","address":"3102 AVE A","country":"USA","state":"TX","city":"LUBBOCK","postal":"79404-2236"},{"lat":"41.9844562","lng":"-87.9908169","id":1403920,"name":"CAULFIELD INDUST \/DO IT BEST STORE # 7153","address":"1475A EAST THORNDALE AVENUE","country":"USA","state":"IL","city":"ITASCA","postal":"60143"},{"lat":"36.9590886","lng":"-122.0441022","id":1403921,"name":"THE HOSE SHOP INC.","address":"121 INGALLS STREET","country":"USA","state":"CA","city":"SANTA CRUZ","postal":"95060"},{"lat":"34.5379355","lng":"-82.0586085","id":1403922,"name":"FOSTER TOOL & SUPPLY CO., INC","address":"150 BYARS RD\nHIGHWAY 14","country":"USA","state":"SC","city":"LAURENS","postal":"29360"},{"lat":"53.472217","lng":"-113.483722","id":1403923,"name":"WOLSELEY - CANADA","address":"3780 98TH STREET","country":"CANADA","state":"AB","city":"EDMONTON","postal":"T6E 6B4"},{"lat":"39.9627378","lng":"-86.1327863","id":1403924,"name":"RUNYON EQUIPMENT RENTAL INC.","address":"410 W. CARMEL DRIVE","country":"USA","state":"IN","city":"CARMEL","postal":"46032"},{"lat":"34.1099239","lng":"-117.934709","id":1403925,"name":"HOSE-MAN INC.","address":"5397 N. IRWINDALE AVE","country":"USA","state":"CA","city":"IRWINDALE","postal":"91706"},{"lat":"47.7054538","lng":"-117.3576619","id":1403926,"name":"SPOKANE INDUSTRIAL SUPPLY","address":"5211 N. FREYA","country":"USA","state":"WA","city":"SPOKANE","postal":"99217"},{"lat":"31.2199798","lng":"-96.7892506","id":1403927,"name":"TEXAS PNEUMATIC TOOLS, INC","address":"1089 STATE HWY 6","country":"USA","state":"TX","city":"REAGAN","postal":"76680"},{"lat":"39.7028541","lng":"-86.0773064","id":1403928,"name":"HAGGARD & STOCKING ASSOC, INC","address":"5318 VICTORY DRIVE\nBEECH GROVE WAREHOUSE","country":"USA","state":"IN","city":"INDIANAPOLIS","postal":"46203"},{"lat":"40.9926531","lng":"-80.6413064","id":1403929,"name":"PENN TOOL  (PTSS)- GA,TX,MI, OH","address":"625 BEV ROAD\nCORPORATE OFFICE","country":"USA","state":"OH","city":"YOUNGSTOWN","postal":"44512"},{"lat":"37.406667","lng":"-77.528383","id":1403930,"name":"HOSE & EQUIPMENT, INC.\/AFP","address":"7900 WHITEPINE RD\nC\/O AFP INDUSTRIES","country":"USA","state":"VA","city":"RICHMOND","postal":"23237"},{"lat":"36.8552527","lng":"-76.2409417","id":1403931,"name":"C.E. THURSTON & SONS, INC","address":"3550 E VIRGINIA BEACH BLVD","country":"USA","state":"VA","city":"NORFOLK","postal":"23502"},{"lat":"31.9275362","lng":"-92.6342422","id":1403932,"name":"CENTRAL INDUSTRIAL SUPPLY INC.","address":"201 NO. GROVE STREET","country":"USA","state":"LA","city":"WINNFIELD","postal":"71483"},{"lat":"32.1857444","lng":"-110.9150202","id":1403933,"name":"AMERICAN HOSE & RUBBER CO.","address":"3645 E. 44TH STREET","country":"USA","state":"AZ","city":"TUCSON","postal":"85713"},{"lat":"48.4064668","lng":"-71.1609465","id":1403934,"name":"GROUPE LD INC","address":"2370 BEAUMAN STREET","country":"CANADA","state":"QC","city":"JONQUIRE","postal":"G7S 4S4"},{"lat":"49.2147406","lng":"-68.1823299","id":1403935,"name":"APPLIED INDUSTRIAL - CANADA","address":"5 RUE NARCISSA - BLAIS","country":"CANADA","state":"QC","city":"BAIE - COMEAU","postal":"G4Z 1T3"},{"lat":"41.3165776","lng":"-95.9213916","id":1403936,"name":"JOHN DAY COMPANY","address":"6263 ABBOTT DR","country":"USA","state":"NE","city":"OMAHA","postal":"68110"},{"lat":"31.339412","lng":"-94.7623534","id":1403937,"name":"LUFKIN RUBBER & GASKET CO.","address":"PO BOX 150356","country":"USA","state":"TX","city":"LUFKIN","postal":"75915-0356"},{"lat":"38.0802062","lng":"-84.5029234","id":1403938,"name":"NEILL-LAVIELLE SUPPLY CO.","address":"1051 WHIPPLE CT.","country":"USA","state":"KY","city":"LEXINGTON","postal":"40511"},{"lat":"30.1169553","lng":"-91.9473403","id":1403939,"name":"CHARTER SUPPLY","address":"8100 AMBASSADOR CAFFERY PARKWAY","country":"USA","state":"LA","city":"BROUSSARD","postal":"70518"},{"lat":"40.7338588","lng":"-111.8987785","id":1403940,"name":"INDUSTRIAL SUPPLY CO. UTAH","address":"1635 SOUTH 300 WEST","country":"USA","state":"UT","city":"SALT LAKE CITY","postal":"84115"},{"lat":"44.66041","lng":"-90.176762","id":1403941,"name":"TRUE VALUE HARDWARE","address":"751 S CENTRAL AVE\nHILLER'S TRUE VALUE HARDWARE","country":"USA","state":"WI","city":"MARSHFIELD","postal":"54449"},{"lat":"37.6492118","lng":"-122.3888572","id":1403942,"name":"SNOW & GALGIANI","address":"380 SWIFT AVE - UNIT 14","country":"USA","state":"CA","city":"S.SAN FRANCISCO","postal":"94080"},{"lat":"34.029613","lng":"-84.238417","id":1403943,"name":"VALLEN \/ IDG \/ HAGEMEYER","address":"CALLER SERVICE 1819","country":"USA","state":"GA","city":"ALPHARETTA","postal":"30022"},{"lat":"51.9120668","lng":"4.3494366","id":1403944,"name":"PNEUTECH PTY LTD","address":"3 ARGENT PLACE","country":"NETHERLANDS","city":"VLAARDINGEN","postal":"3134"},{"lat":"37.9978141","lng":"-87.5409866","id":1403945,"name":"P&I SUPPLY","address":"2220 NORTH FARES AVE","country":"USA","state":"IN","city":"EVANSVILLE","postal":"47711"},{"lat":"41.6093916","lng":"-93.6187724","id":1403946,"name":"IOWA MACHINERY & SUPPLY CO.,INC","address":"1711 2ND AVE","country":"USA","state":"IA","city":"DES MOINES","postal":"50314"},{"lat":"-27.4718491","lng":"153.1295793","id":1403947,"name":"BLASTONE INTERNATIONAL PTY LTOL","address":"P.O BOX 3385","country":"AUSTRALIA","city":"TINGALPA","postal":"4173"},{"lat":"43.007178","lng":"-88.1163877","id":1403948,"name":"NEU TOOL & SUPPLY CORP.","address":"16333 W ROGERS DR, NEW BERLIN, WI 53151"},{"lat":"38.3112302","lng":"-92.1715389","id":1403949,"name":"DIAMOND PET FOODS\/SCHELL & KAMPETER INC, DBA","address":"103 N OLIVE STREET","country":"USA","state":"MO","city":"META","postal":"US"},{"lat":"41.6008683","lng":"-71.4956778","id":1403950,"name":"JEBCO, INC","address":"3560 QUAKER LANE","country":"USA","state":"RI","city":"NORTH KINGSTOWN","postal":"02852-3007"},{"lat":"43.6462593","lng":"-70.2625659","id":1403951,"name":"PRC INDUSTRIAL SUPPLY","address":"21 W. COMMERCIAL STREET","country":"USA","state":"ME","city":"PORTLAND","postal":"4101"},{"lat":"34.9516926","lng":"-82.1129473","id":1403952,"name":"INTERSTATE IND'L SUPPLY, INC","address":"1275 OLD SPARTANBURG HWY\nBUILDING 1 DOCK &AMP;AMP;QUOT;A&AMP;AMP;QUOT;","country":"USA","state":"SC","city":"LYMAN","postal":"29365"},{"lat":"32.9205664","lng":"-80.0702119","id":1403953,"name":"CESCO, INC","address":"7251 CROSS COUNTY ROAD","country":"USA","state":"SC","city":"N CHARLESTON","postal":"29418"},{"lat":"34.8835764","lng":"-82.4073409","id":1403954,"name":"LOUIS P BATSON INC","address":"1 CLUB ROAD","country":"USA","state":"SC","city":"GREENVILLE","postal":"29609"},{"lat":"33.5784106","lng":"-101.8390142","id":1403955,"name":"LUBBOCK GASKET & SUPPLY","address":"402 19TH STREET","country":"USA","state":"TX","city":"LUBBOCK","postal":"79408"},{"lat":"41.8183551","lng":"-72.6118603","id":1403956,"name":"SCAND TECH.","address":"440 JOHN FIECHS BLVD.","country":"USA","state":"CT","city":"S. WINSOR","postal":"6074"},{"lat":"33.4715323","lng":"-112.1079048","id":1403957,"name":"UNICOA INDUSTRIAL SUPPLY \/ GLENDALE","address":"2121 NORTH 23RD AVE","country":"USA","state":"AZ","city":"PHOENIX","postal":"85009"},{"lat":"42.132295","lng":"-72.5484294","id":1403958,"name":"B.E. CROWLEY","address":"525 COTTAGE STREET","country":"USA","state":"MA","city":"SPRINGFIELD","postal":"1104"},{"lat":"40.6073284","lng":"-74.2770037","id":1403959,"name":"A & M INDUSTRIAL SUPPLY CO.","address":"37 WEST CHERRY ST","country":"USA","state":"NJ","city":"RAHWAY","postal":"7065"},{"lat":"30.6114132","lng":"-96.3133241","id":1403960,"name":"UNITED RENTALS- TX, LA","address":"2301 S TEXAS AVE","country":"USA","state":"TX","city":"COLLEGE STATION","postal":"77840"},{"lat":"38.6925619","lng":"-90.4054305","id":1403961,"name":"WISE EL SANTO-REIS-ZINK COMPANY","address":"11000 LINPAGE PLACE","country":"USA","state":"MO","city":"ST LOUIS","postal":"63132"},{"lat":"45.5624389","lng":"-122.6906617","id":1403962,"name":"ADVANCED FINISHING SYSTEMS","address":"2304 N KILLINGSWORTH STREET","country":"USA","state":"OR","city":"PORTLAND","postal":"97217"},{"lat":"32.5056258","lng":"-92.1206495","id":1403963,"name":"TOOL HOUSE LLC","address":"510 WALNUT ST","country":"USA","state":"LA","city":"MONROE","postal":"71201"},{"lat":"42.6764206","lng":"-88.9710054","id":1403964,"name":"ARIENS SPECIALTY BRANDS LLC","address":"401 S WRIGHT RD","country":"USA","state":"WI","city":"JANESVILLE","postal":"53546"},{"lat":"41.6756675","lng":"-88.0665609","id":1403965,"name":"KAMAN FLUID POWER LLC","address":"100 E CROSSROADS PKWY\nUNIT E","country":"USA","state":"IL","city":"BOLINGBROOK","postal":"60440"},{"lat":"43.7174583","lng":"-79.5771569","id":1403966,"name":"PNEUTOOL PARTS & SERVICE CO. LTD","address":"33 HAAS RD","country":"CANADA","state":"ON","city":"TORONTO","postal":"M9W 3A1"},{"lat":"34.7566879","lng":"-84.9668806","id":1403967,"name":"BEARDEN INDUSTRIAL SUPPLY, INC","address":"1012 S HAMILTON ST","country":"USA","state":"GA","city":"DALTON","postal":"30720"},{"lat":"36.6846933","lng":"-78.8998922","id":1403968,"name":"BO'S HYDRAULICS INC.","address":"1138 HUELL MATTHEWS HWY","country":"USA","state":"VA","city":"SOUTH BOSTON","postal":"24592"},{"lat":"19.4208155","lng":"-99.1685428","id":1403969,"name":"SERVICIOS DE INGENIERIA","address":"VALLADOLID 37\nCOL ROMA DEL. CUAUHTEMOC D.F.","country":"MEXICO","city":"MEXICO CITY","postal":"6700"},{"lat":"43.2191982","lng":"-86.2502481","id":1403970,"name":"ACTION INDUS. SUP. MUSKEGON MI","address":"1840 SIXTH ST","country":"USA","state":"MI","city":"MUSKEGON","postal":"49441"},{"lat":"41.4681684","lng":"-74.3795041","id":1403971,"name":"F & F INDUSTRIAL EQUIP CORP","address":"195 TOWER DRIVE","country":"USA","state":"NY","city":"MIDDLETOWN","postal":"10941"},{"lat":"39.780993","lng":"-84.1950618","id":1403972,"name":"RELIABLE CONSTRUCTION SERVICES","address":"1256 STANLEY AVE\nDAYTON. OHIO 45404"},{"lat":"48.3954183","lng":"-89.2578167","id":1403973,"name":"GEORGE O HILL SUPPLY LIMITED","address":"710 BALMORAL ST","country":"CANADA","state":"ON","city":"THUNDER BAY","postal":"P7C 4W2"},{"lat":"40.9140411","lng":"-98.3450243","id":1403974,"name":"KELLY SUPPLY COMPANY","address":"1004 W OKLAHOMA AVE\nGRAND ISLAND, NE 68801"},{"lat":"39.3140798","lng":"-84.4744397","id":1403975,"name":"OAKLEY AIR SYSTEMS INC","address":"9706 INTEROCEAN DR","country":"USA","state":"OH","city":"CINCINNATI","postal":"45246"},{"lat":"43.0814549","lng":"-76.1090128","id":1403976,"name":"HORIZON SOLUTIONS CORP","address":"5919 COURT ST ROAD","country":"USA","state":"NY","city":"SYRACUSE","postal":"13206"},{"lat":"39.2743102","lng":"-84.4360752","id":1403977,"name":"ABCO SAFETY","address":"11183 WOODWARD LN, CINCINNATI, OH 45241"},{"lat":"41.256568","lng":"-80.8059649","id":1403978,"name":"TRUMBULL INDUSTRIES","address":"400 DIETZ ROAD\nMARY WESOLOWSKY, ACCTS. PAYABLE","country":"USA","state":"OH","city":"WARREN","postal":"44483"},{"lat":"33.4528931","lng":"-81.9359202","id":1403979,"name":"RICHMOND SUPPLY COMPANY","address":"601 LANEY WALKER BLVD EXT.","country":"USA","state":"GA","city":"AUGUSTA","postal":"30901"},{"lat":"42.993899","lng":"-83.682722","id":1403980,"name":"SHIVELY BROS. INC.","address":"2919 S. GRAND TRAVERSE","country":"USA","state":"MI","city":"FLINT","postal":"48507"},{"lat":"45.5454294","lng":"-122.711456","id":1403981,"name":"STAR INDUSTRIAL SUPPLY, INC.","address":"3257 NORTHWEST 29TH AVE","country":"USA","state":"OR","city":"PORTLAND","postal":"97210"},{"lat":"38.538174","lng":"-90.4555214","id":1403982,"name":"AIR SPECIALISTS WORLDWIDE, INC.","address":"1675 LARKIN WILLIAMS RD, FENTON, MO 63026"},{"lat":"37.9741768","lng":"-87.5778549","id":1403983,"name":"STAGG SAFETY EQUIPMENT***INACTIVE**","address":"163 S. THIRD AVE.","country":"USA","state":"IN","city":"EVANSVILLE","postal":"47708"},{"lat":"35.2644328","lng":"-81.0563397","id":1403984,"name":"IDG - VALLEN **INACTIVE** (USE CAMGA)","address":"2100 THE OAKS PARKWY","country":"USA","state":"NC","city":"BELMONT","postal":"28012"},{"lat":"18.4655394","lng":"-66.1057355","id":1403985,"name":"A. FOURNIER & ASSOCIATES","address":"#150 LABRA STREET STOP 18TH","country":"PUERTO RICO","city":"SAN JUAN","postal":"907"},{"lat":"40.8794629","lng":"-74.2976127","id":1403986,"name":"AM-MAC INCORPORATED","address":"311 ROUTE 46 WEST\nJOYCE, EXT. 210","country":"USA","state":"NJ","city":"FAIRFIELD","postal":"7004"},{"lat":"39.4702677","lng":"-87.4050277","id":1403987,"name":"INDUSTRIAL SUPPLY CO - TERRE HAUTE IN","address":"322-328 N 9TH ST, TERRE HAUTE, IN 47807"},{"lat":"25.8002758","lng":"-80.3769564","id":1403988,"name":"INTERNATIONAL SAFETY RESOURCES INC","address":"2855 NW 112TH AVE STE. 3","country":"USA","state":"FL","city":"DORAL","postal":"33172"},{"lat":"35.0511164","lng":"-89.9422906","id":1403989,"name":"MEMPHIS BEARINGS & SUPPLY CO.","address":"3643 WINCHESTER RD","country":"USA","state":"TN","city":"MEMPHIS","postal":"38118"},{"lat":"35.7779366","lng":"-78.5669245","id":1403990,"name":"DILLON SUPPLY COMPANY","address":"440 CIVIC BOULEVARD","country":"USA","state":"NC","city":"RALEIGH","postal":"27610"},{"lat":"31.77","lng":"-106.43","id":1403991,"name":"SYNOVOS","address":"SYNOVOS BILLING\nPO BOX 982478","country":"USA","state":"TX","city":"EL PASO","postal":"79998"},{"lat":"47.3642936","lng":"-122.2291183","id":1403992,"name":"SWIFT TOOL CO","address":"1720 CENTRAL AVE S","country":"USA","state":"WA","city":"KENT","postal":"98032"},{"lat":"52.6486646","lng":"-8.5885599","id":1403993,"name":"REXEL INDUST.SUP. SOLUTIONS IRELAND LTD","address":"EASTWAY BUSINESS PARK \nBALLYSIMON ROAD","country":"UNITED KINGDOM","city":"LIMERICK","postal":"B15 1XB"},{"lat":"33.5519791","lng":"-86.6624476","id":1403994,"name":"MOTION CANADA","address":"1605 ALTON RD","country":"USA","state":"AL","city":"BIRMINGHAM","postal":"35210"},{"lat":"39.6201376","lng":"-86.0773021","id":1403995,"name":"AMERICAN INDUSTRIAL CORP.- IN","address":"1400 AMERICAN WAY","country":"USA","state":"IN","city":"GREENWOOD","postal":"46143"},{"lat":"43.1291397","lng":"-78.9851825","id":1403996,"name":"JMG WELDING","address":"6951 COLONIAL DRIVE","country":"USA","state":"NY","city":"NIAGARA FALLS","postal":"14305"},{"lat":"33.204872","lng":"-117.297921","id":1403997,"name":"ONE SOURCE SUPPLY","address":"3951 OCEANIC DRIVE","country":"USA","state":"CA","city":"OCEANSIDE","postal":"92056-5832"},{"lat":"41.608441","lng":"-81.0517239","id":1403998,"name":"HEMLY TOOL SUPPLY INC","address":"9700 MADISON RD","country":"USA","state":"OH","city":"MONTVILLE","postal":"44064"},{"lat":"43.494573","lng":"-112.0209253","id":1403999,"name":"PARAMOUNT SUP -ID,WA,OR,AK,ONLY","address":"PO BOX 50097","country":"USA","state":"ID","city":"IDAHO FALLS","postal":"83405"},{"lat":"42.7074316","lng":"-78.8341591","id":1404000,"name":"ALPHA-Z DISTRIBUTORS","address":"4018 N HAMPTONBROOK DR.","country":"USA","state":"NY","city":"HAMBURG","postal":"14075"},{"lat":"41.3700114","lng":"-82.092948","id":1404001,"name":"ROYAL SUPPLY, INC.","address":"131 WILLIAMS ST\nELYRIA OH 44035"},{"lat":"47.6221922","lng":"-122.336546","id":1404002,"name":"AMAZON.COM CANADA","address":"410 TERRY AVE. NORTH","country":"USA","state":"WA","city":"SEATTLE","postal":"98109-5210"},{"lat":"41.856544","lng":"-80.784386","id":1404003,"name":"A. LOUIS SUPPLY CO.","address":"5610 MAIN AVE, ASHTABULA, OH 44004"},{"lat":"38.453611","lng":"-107.888603","id":1404004,"name":"BLACK CANYON TOOLS","address":"64186 NORTH RAMONA","country":"USA","state":"CO","city":"MONTROSE","postal":"81403"},{"lat":"30.6114132","lng":"-96.3133241","id":1404005,"name":"UNITED RENTALS -MA,CT, RI,ME NH,VT","address":"2301 TEXAS AVE","country":"USA","state":"TX","city":"COLLEGE STATION","postal":"77840"},{"lat":"39.9738633","lng":"-83.029949","id":1404006,"name":"OHIO POWER TOOL","address":"999 GOODALE BLVD","country":"USA","state":"OH","city":"COLUMBUS","postal":"43212"},{"lat":"37.09024","lng":"-95.712891","id":1404007,"name":"SEVERANCE TOOLS OF CANADA","address":"1600 INDUSTRIAL ROAD, UNIT 3A\nCOUNTRY OF ORIGIN USA","country":"CANADA","state":"ON","city":"CAMBRIDGE","postal":"N3H 4W5"},{"lat":"38.0983214","lng":"-85.6773629","id":1404008,"name":"ORR SAFETY EQUIPMENT","address":"11601 INTERCHANGE DRIVE","country":"USA","state":"KY","city":"LOUISVILLE","postal":"40229"},{"lat":"36.079433","lng":"-79.4316207","id":1404009,"name":"SYKES SUPPLY COMPANY","address":"1015 STOKES STREET","country":"USA","state":"NC","city":"BURLINGTON","postal":"27215"},{"lat":"34.2739503","lng":"-77.9596326","id":1404010,"name":"F.P. FENSEL SUPPLY COMPANY","address":"2703 US HWY 421 NORTH","country":"USA","state":"NC","city":"WILMINGTON","postal":"28401"},{"lat":"43.3622837","lng":"-79.8044152","id":1404011,"name":"S.B SIMPSON GROUP INC.","address":"3210 MAINWAY","country":"CANADA","state":"ON","city":"BURLINGTON","postal":"L7M 1A5"},{"lat":"36.0527967","lng":"-79.9398755","id":1404012,"name":"CROSS COMPANY","address":"4400 PIEDMONT PARKWAY","country":"USA","state":"NC","city":"GREENSBORO","postal":"27410"},{"lat":"39.8067974","lng":"-86.0166056","id":1404013,"name":"FORECAST SALES INC.","address":"2719 TOBEY DR.\nDIANE BALL, ACCOUNTING","country":"USA","state":"IN","city":"INDIANAPOLIS","postal":"46219"},{"lat":"38.3421005","lng":"-81.6147249","id":1404014,"name":"INDUSTRIAL SUPPLY SOLUTIONS","address":"520 ELIZABETH ST","country":"USA","state":"WV","city":"CHARLESTON","postal":"25311"},{"lat":"43.7732041","lng":"-79.5679605","id":1404015,"name":"HD SUPPLY BRAFASCO","address":"100 GALCAT DRIVE","country":"CANADA","state":"ON","city":"VAUGHAN","postal":"L4L 0B9"},{"lat":"30.162006","lng":"-91.9774874","id":1404016,"name":"GAS AND SUPPLY IWS","address":"125 THRUWAY PARK","country":"USA","state":"LA","city":"BROUSSARD","postal":"70518"},{"lat":"29.6749673","lng":"-95.3858074","id":1404017,"name":"DNOW LP - NATIONAL OILWELL","address":"2835 HOLMES RD","country":"USA","state":"TX","city":"HOUSTON","postal":"77051"},{"lat":"42.9314629","lng":"-78.8992113","id":1404018,"name":"DIVAL SAFETY EQUIPMENT, INC.","address":"1721 NIAGARA STREET","country":"USA","state":"NY","city":"BUFFALO","postal":"14207-3108"},{"lat":"40.5022264","lng":"-81.7774026","id":1404019,"name":"KEIM LUMBER COMPANY","address":"STATE ROUTE 557","country":"USA","state":"OH","city":"CHARM","postal":"44617"},{"lat":"47.5530685","lng":"-122.3360456","id":1404020,"name":"MALLORY SAFETY AND SUPPLY","address":"5510 E MARGINAL WAY S","country":"USA","state":"WA","city":"SEATTLE","postal":"98134"},{"lat":"35.4552192","lng":"-97.6034517","id":1404021,"name":"SPRAY TECH SYSTEMS","address":"1025A ENTERPRISE AVE","country":"USA","state":"OK","city":"OKLAHOMA CITY","postal":"73128"},{"lat":"32.7572804","lng":"-97.0472396","id":1404022,"name":"AFISCO","address":"3501 AVE E EAST","country":"USA","state":"TX","city":"ARLINGTON","postal":"76011"},{"lat":"34.9891131","lng":"-85.2225219","id":1404023,"name":"BAYOU SALES & SERVICE","address":"1523 KEEBLE ST","country":"USA","state":"TN","city":"EAST RIDGE","postal":"37412"},{"lat":"35.3044446","lng":"-81.2819367","id":1404024,"name":"SUNCOR INC","address":"522 BESS TOWN ROAD","country":"USA","state":"NC","city":"BESSEMER CITY","postal":"28016"},{"lat":"34.2097195","lng":"-118.355908","id":1404025,"name":"GENERAL INDUST. TOOL & SUPPLY","address":"7649 SAN FERNANDO ROAD","country":"USA","state":"CA","city":"BURBANK","postal":"91505"},{"lat":"37.0786735","lng":"-94.5186568","id":1404026,"name":"JOPLIN SAW & SUPPLY","address":"1120 BYERS AVE.","country":"USA","state":"MO","city":"JOPLIN","postal":"64801"},{"lat":"34.5774793","lng":"-83.3352267","id":1404027,"name":"CAPLES INDUSTRIAL SUPPLY, INC","address":"302 W CURRAHEE ST","country":"USA","state":"GA","city":"TOCCOA","postal":"30577"},{"lat":"47.5357581","lng":"-122.3306637","id":1404028,"name":"PACIFIC AMERICAN COMMERCIAL CO.","address":"250 S WEBSTER ST","country":"USA","state":"WA","city":"SEATTLE","postal":"98108"},{"lat":"41.4693536","lng":"-81.7251137","id":1404029,"name":"MACHO TOOL & SUPPLY","address":"5611 CLARK AVE, CLEVELAND, OH 44102"},{"lat":"37.7187642","lng":"-122.1892828","id":1404030,"name":"GOLDEN GATE MARINE & INDUSTRIAL","address":"900 DOOLITTLE DRI. #10A","country":"USA","state":"CA","city":"SAN LEANDRO","postal":"94577"},{"lat":"43.2335749","lng":"-79.7320567","id":1404031,"name":"CHARLES JONES INDUSTRIAL LIMITED","address":"237 ARVIN AVE\nMARCIE O'BRIEN, ACCTS. PAYABLE","country":"CANADA","state":"ON","city":"STONEY CREEK","postal":"L8E 5S6"},{"lat":"35.5904882","lng":"-87.0390813","id":1404032,"name":"PORTER-WALKER LLC","address":"115 DYER ST. SUITE 3","country":"USA","state":"TN","city":"COLUMBIA","postal":"38401"},{"lat":"43.3383313","lng":"-79.8148224","id":1404033,"name":"TRENCHLESS UTILITY EQUIPMENT, INC.","address":"2070 QUEENSWAY DRIVE","country":"CANADA","state":"ON","city":"BURLINGTON","postal":"L7R 4L9"},{"lat":"37.7109782","lng":"-121.7067249","id":1404034,"name":"WESTERN TOOL & SUPPLY","address":"203-D LAWRENCE DR.","country":"USA","state":"CA","city":"LIVERMORE","postal":"94550"},{"lat":"42.556708","lng":"-87.843003","id":1404035,"name":"SNAP-ON TOOLS CORPORATION","address":"2801 80TH STREET","country":"USA","state":"WI","city":"KENOSHA","postal":"53141"},{"lat":"37.0048506","lng":"-76.4058968","id":1404036,"name":"WOLSELEY IND HAMPTON VA \/ FERGUSON","address":"2301 ALUMINUM AVE","country":"USA","state":"VA","city":"HAMPTON","postal":"23661"},{"lat":"30.2666038","lng":"-92.0176495","id":1404037,"name":"PREHEAT INC.","address":"4500 EVANGELINE THRUWAY","country":"USA","state":"LA","city":"CORENCRO","postal":"70520"},{"lat":"37.6548549","lng":"-97.3882205","id":1404038,"name":"GT SALES & MFG., INC.","address":"2202 S. WEST ST.\nWICHITA, KS 67213"},{"lat":"41.7135782","lng":"-86.9092286","id":1404039,"name":"ENVIRONMENTAL SAFETY PRODUCTS, INC","address":"700 W 6TH STREET","country":"USA","state":"IN","city":"MICHIGAN CITY","postal":"46361"},{"lat":"40.865845","lng":"-74.2908398","id":1404040,"name":"FANCORT INDUSTRIES, INC.","address":"31 FAIRFIELD PLACE","country":"USA","state":"NJ","city":"WEST CALDWELL","postal":"7006"},{"lat":"35.9909267","lng":"-95.8864837","id":1404041,"name":"INTERTECH FILTRATION SYSTEMS","address":"11907-C SOUTH MEMORIAL DRIVE","country":"USA","state":"OK","city":"BIXBY","postal":"74008"},{"lat":"38.2067809","lng":"-85.5392534","id":1404042,"name":"AIR HYDRO POWER","address":"2550 BLANKENBAKER PARKWAY","country":"USA","state":"KY","city":"LOUISVILLE","postal":"40299"},{"lat":"41.0723451","lng":"-85.0554936","id":1404043,"name":"DO IT BEST CORP. \/ INCOM","address":"6502 NELSON RD","country":"USA","state":"IN","city":"FORT WAYNE","postal":"46803"},{"lat":"35.775766","lng":"-80.899283","id":1404044,"name":"ACTION INDUS. SUP.-STATESVILLE NC","address":"924 COCHRAN STREET","country":"USA","state":"NC","city":"STATESVILLE","postal":"28677"},{"lat":"36.7261551","lng":"-108.1987509","id":1404045,"name":"FOUR STATES GASKET & RBR INC","address":"475 EAST CEDAR ST.","country":"USA","state":"NM","city":"FARMINGTON","postal":"87401"},{"lat":"51.5053122","lng":"-0.320109","id":1404046,"name":"RAPTOR SUPPLIES LIMITED","address":"6 HESSEL ROAD","country":"UNITED KINGDOM","city":"LONDON","postal":"W13 9ES"},{"lat":"39.7992304","lng":"-76.9926574","id":1404047,"name":"C.H. REED, INC","address":"301 POPLAR ST","country":"USA","state":"PA","city":"HANOVER","postal":"17331-2359"},{"lat":"36.8644011","lng":"-119.7583677","id":1404048,"name":"INDUSTRIAL RUBBER OUTLET","address":"8839 N CEDAR AVE PMB #328","country":"USA","state":"CA","city":"FRESNO","postal":"93720"},{"lat":"45.5312153","lng":"-122.5992575","id":1404049,"name":"MUNNELL & SHERRILL, INC.","address":"1163 N.E. 63RD AVENUE","country":"USA","state":"OR","city":"PORTLAND","postal":"97213"},{"lat":"40.824842","lng":"-74.435277","id":1404050,"name":"STEPHEN GOULD CORP.","address":"35 SOUTH JEFFERSON RD","country":"USA","state":"NJ","city":"WHIPPANY","postal":"7981"},{"lat":"36.060077","lng":"-90.523684","id":1404051,"name":"PARAGOULD INDUSTRIAL BEARINGS INC","address":"2607 E. KINGSHIGHWAY","country":"USA","state":"AR","city":"PARAGOULD","postal":"72450"},{"lat":"33.884316","lng":"-117.6021797","id":1404052,"name":"MCFADDEN-DALE HARDWARE","address":"129 N. MAPLE STREET","country":"USA","state":"CA","city":"CORONA","postal":"92880-1735"},{"lat":"34.4352224","lng":"-83.1062297","id":1404053,"name":"EISON INDUSTRIAL SALES, INC.","address":"803 GROGAN STREET","country":"USA","state":"GA","city":"LAVONIA","postal":"30553"},{"lat":"34.6503282","lng":"-92.404778","id":1404054,"name":"AIR POWER INC - AR","address":"11000 EAST OTTER CREEK BLVD.","country":"USA","state":"AR","city":"MABELVALE","postal":"72103-0544"},{"lat":"28.0781054","lng":"-81.976005","id":1404055,"name":"ISN \/ PTE","address":"2727 INTERSTATE DRIVE","country":"USA","state":"FL","city":"LAKELAND","postal":"33805"},{"lat":"36.6483003","lng":"-121.6316134","id":1404056,"name":"GREEN RUBBER - KENNEDY AG","address":"1310 DAYTON STREET","country":"USA","state":"CA","city":"SALINAS","postal":"93901"},{"lat":"33.977809","lng":"-84.5396653","id":1404057,"name":"THREADS FOR THE SOUTH","address":"1076 KING INDUSTRIAL DRIVE","country":"USA","state":"GA","city":"MARIETTA","postal":"30062"},{"lat":"41.8925721","lng":"-87.7032516","id":1404058,"name":"US COMPLIANCE CENTER, INC.","address":"627 N ALBANY AVE, CHICAGO, IL 60612"},{"lat":"35.5747424","lng":"-77.0858674","id":1404059,"name":"INDUSTRIAL & CONST ENTERPRISES","address":"1995 WEST FIFTH STREET","country":"USA","state":"NC","city":"WASHINGTON","postal":"27889"},{"lat":"33.0098274","lng":"-85.0568792","id":1404060,"name":"TALLADEGA MACHINERY & SUPPLY","address":"1504 ORCHARD HILL ROAD","country":"USA","state":"GA","city":"LAGRANGE","postal":"30240"},{"lat":"30.0134456","lng":"-95.4573456","id":1404061,"name":"SYNERGY BARUKH, LTD.","address":"17150 BUTTE CREEK SUITE 100","country":"USA","state":"TX","city":"HOUSTON","postal":"77090"},{"lat":"33.6531274","lng":"-85.8301459","id":1404062,"name":"NEWMAN INDUSTRIAL SUPPLY, INC.","address":"630 NOBLE STREET","country":"USA","state":"AL","city":"ANNISTON","postal":"36201"},{"lat":"39.1571979","lng":"-94.4784629","id":1404063,"name":"HANTOVER, INC.","address":"8600 N.E. UNDERGROUND DRIVE\nPILLAR 219","country":"USA","state":"MO","city":"KANSAS CITY","postal":"64161"},{"lat":"34.9040845","lng":"-82.4201287","id":1404064,"name":"GREENVILLE INDUSTRIAL RUBBER","address":"2707 POINSETT HWY","country":"USA","state":"SC","city":"GREENVILLE","postal":"29609"},{"lat":"40.7016886","lng":"-89.5748885","id":1404065,"name":"SENTRY SAFETY SUPPLY","address":"1307 N.E. ADAMS STREET","country":"USA","state":"IL","city":"PEORIA","postal":"61603"},{"lat":"43.0563432","lng":"-76.16733","id":1404066,"name":"GARTNER EQUIPMENT CO.","address":"302 SAND STREET","country":"USA","state":"NY","city":"SYRACUSE","postal":"13204"},{"lat":"41.5679311","lng":"-72.1268495","id":1404067,"name":"PROCESS COMPONENTS, INC.","address":"20 NEW PARK AVE","country":"USA","state":"CT","city":"FRANKLIN","postal":"6254"},{"lat":"39.0427958","lng":"-84.6352455","id":1404068,"name":"PEDTECH. LLC","address":"PEDTECH, LLC\n1460 COX AVE\nERLANGER, KY 41018"},{"lat":"39.4887813","lng":"-88.3570624","id":1404069,"name":"S & K\/AIR POWER TOOL","address":"317 DEWITT AVE, MATTOON, IL 61938"},{"lat":"32.7941139","lng":"-97.2674269","id":1404070,"name":"COHN & GREGORY,  INC.","address":"5450 MIDWAY ROAD\nMAIN STOCKING WAREHOUSE","country":"USA","state":"TX","city":"FORT WORTH","postal":"76117"},{"lat":"33.411564","lng":"-81.800262","id":1404071,"name":"JANEICE PRODUCTS COMPANY","address":"1084 WILLISTON RD. STE B","country":"USA","state":"SC","city":"AIKEN","postal":"29803"},{"lat":"35.7211543","lng":"-81.7577655","id":1404072,"name":"BURKE INDUSTRIAL SUPPLY INC.","address":"240 DIXIE BLVD","country":"USA","state":"NC","city":"MORGANTON","postal":"28655"},{"lat":"39.1693392","lng":"-94.6435638","id":1404073,"name":"BUNZL","address":"5710 41ST STREET","country":"USA","state":"MO","city":"RIVERSIDE","postal":"64150"},{"lat":"38.94985","lng":"-76.8311091","id":1404074,"name":"SAFEWARE INC - MD","address":"4403 FORBES BLVD.","country":"USA","state":"MD","city":"LANHAM","postal":"20785"},{"lat":"40.4695877","lng":"-80.2134159","id":1404075,"name":"FISHER SCIENTIFIC COMPANY","address":"300 INDUSTRY DR","country":"USA","state":"PA","city":"PITTSBURGH","postal":"15275"},{"lat":"35.8704576","lng":"-77.8275706","id":1404076,"name":"CONSOLIDATED MACHINE & HYDRAULIC, INC.","address":"3501 N. HATHAWAY BLVD.","country":"USA","state":"NC","city":"SHARPSBURG","postal":"27878"},{"lat":"40.1298819","lng":"-74.8519924","id":1404077,"name":"AIRGAS INC.","address":"2501 GREEN LN","country":"USA","state":"PA","city":"LEVITTOWN","postal":"19057"},{"lat":"43.088281","lng":"-79.09203","id":1404078,"name":"BICKLES HARDWARE","address":"5964 MAIN STREET","country":"CANADA","state":"ON","city":"NIAGRA FALLS","postal":"L2G 5Z8"},{"lat":"14.4671469","lng":"121.0027309","id":1404079,"name":"MVENT PHILIPPINES, INC.","address":"523 SANTISSIMA TRINIDAD ST\nSAV-6 SUCAT","country":"PHILIPPINES","city":"PARANAQUE CITY","postal":"1707"},{"lat":"32.7035458","lng":"-97.3239363","id":1404080,"name":"RMP INDUSTRIAL SUPPLY","address":"3209 STUART  DRIVE","country":"USA","state":"TX","city":"FORT WORTH","postal":"76110"},{"lat":"37.4092056","lng":"-79.1345237","id":1404081,"name":"FEREBEE-JOHNSON CO.","address":"1611 CONCORD ROAD","country":"USA","state":"VA","city":"LYNCHBURG","postal":"24504"},{"lat":"32.5329264","lng":"-93.7672555","id":1404082,"name":"BEARING SERVICE & SUPPLY, INC.","address":"1327 NORTH MARKET STREET","country":"USA","state":"LA","city":"SHREVEPORT","postal":"71107-6523"},{"lat":"40.7497579","lng":"-73.416778","id":1404083,"name":"TOPLINE TOOL WAREHOUSE","address":"140 MILBAR BLVD","country":"USA","state":"NY","city":"FARMINGDALE","postal":"11735"},{"lat":"39.479351","lng":"-86.0141504","id":1404084,"name":"QUALITY MILL SUPPLY","address":"2159 EARLY LANE","country":"USA","state":"IN","city":"FRANKLIN","postal":"46131"},{"lat":"34.80074","lng":"-87.6767","id":1404085,"name":"MARTIN INC. - AL","address":"125 COURT ST","country":"USA","state":"AL","city":"FLORENCE","postal":"35630"},{"lat":"40.7276141","lng":"-73.4434574","id":1404086,"name":"PARAMOUNT TOOL & EQUIPMENT CO.","address":"765 FULTON STREET","country":"USA","state":"NY","city":"FARMINGDALE","postal":"11735"},{"lat":"40.8474156","lng":"-73.3136433","id":1404087,"name":"APH SPECIALTY","address":"10 AMALIA LANE","country":"USA","state":"NY","city":"COMMACK","postal":"11725"},{"lat":"39.95227","lng":"-75.1625311","id":1404088,"name":"CURTISS WRIGHT\/ AP SERVICES LLC.","address":"PO BOX 7724\nNORTHPOINT INDUSTRIAL PARK","country":"USA","state":"PA","city":"PHILADELPHIA","postal":"19101"},{"lat":"34.8240963","lng":"-82.4330412","id":1404089,"name":"AMERICAN EQUIPMENT CO, INC.*AMECO*","address":"2106 ANDERSON RD.","country":"USA","state":"SC","city":"GREENVILLE","postal":"29611"},{"lat":"42.894006","lng":"-85.676423","id":1404090,"name":"GALLOUP CO.","address":"3838 CLAY AVE SW, GRAND RAPIDS, MI 49548"},{"lat":"47.5435321","lng":"-122.3277753","id":1404091,"name":"PACIFIC RUBBER INC","address":"6720 EAST MARGINAL WAY SOUTH","country":"USA","state":"WA","city":"SEATTLE","postal":"98108"},{"lat":"46.7470689","lng":"-92.1547805","id":1404092,"name":"MARS SUPPLY","address":"4319 WEST FIRST STREET","country":"USA","state":"MN","city":"DULUTH","postal":"55807"},{"lat":"41.9298594","lng":"-88.1183084","id":1404093,"name":"WESCO DISTRIBUTION INC - ALL","address":"200 EAST LIES ROAD","country":"USA","state":"IL","city":"CAROL STREAM","postal":"601888"},{"lat":"39.0330718","lng":"-77.5660167","id":1404094,"name":"CARWASH SOLUTIONS","address":"21082 MILL BRANCH DRIVE","country":"USA","state":"VA","city":"LEESBURG","postal":"20175"},{"lat":"42.5209264","lng":"-71.250113","id":1404095,"name":"F.W. WEBB CO.- METHUEN","address":"160 MIDDLESEX TURNPIKE\nCORPORATE OFFICE","country":"USA","state":"MA","city":"BEDFORD","postal":"1730"},{"lat":"33.9861847","lng":"-83.9656617","id":1404096,"name":"ASA SAFETY SUPPLY","address":"675-K PROGRESS CENTER AVE.","country":"USA","state":"GA","city":"LAWRENCEVILLE","postal":"30043"},{"lat":"41.2130336","lng":"-112.0069299","id":1404097,"name":"HERRICK INDUSTRIAL SUPPLY CO.","address":"2881 PENNSYLVANIA AVE","country":"USA","state":"UT","city":"OGDEN","postal":"84401"},{"lat":"29.6522401","lng":"-95.2930995","id":1404098,"name":"LAMONS GASKET CO. TX, CA","address":"7300 AIRPORT BLVD","country":"USA","state":"TX","city":"HOUSTON","postal":"77061"},{"lat":"35.2315","lng":"-89.8075","id":1404099,"name":"FLUID MANAGEMENT COMPANY","address":"7715 US HIGHWAY 70 STE 106\nBARTLETT, TN  38133"},{"lat":"41.1365486","lng":"-85.1909427","id":1404100,"name":"KAMAN INDUSTRIAL TECHNOLOGIES","address":"6405 HIGHVIEW DR","country":"USA","state":"IN","city":"FORT WAYNE","postal":"46818"},{"lat":"38.9816224","lng":"-77.0649685","id":1404101,"name":"SHARPTEKEK SUPPLY","address":"7203 ROLLINGWOOD DRIVE","country":"USA","state":"MD","city":"CHEVY CHASE","postal":"20815"},{"lat":"36.390971","lng":"-86.4062724","id":1404102,"name":"C & C INDUSTRIAL SALES","address":"1110 GREGORY DR, GALLATIN, TN 37066"},{"lat":"42.1231608","lng":"-80.0225767","id":1404103,"name":"ERIE INDUSTRIAL SUPPLY","address":"2103 EAST 33RD STREET","country":"USA","state":"PA","city":"ERIE","postal":"16510-1525"},{"lat":"38.45159","lng":"-81.819446","id":1404104,"name":"OHIO TOOL SYSTEMS","address":"165 JACOBSON DRIVE","country":"USA","state":"WV","city":"POCA","postal":"25159"},{"lat":"39.7214073","lng":"-105.0134626","id":1404105,"name":"WYLACO SUPPLY COMPANY","address":"315 VALLEJO STREET","country":"USA","state":"CO","city":"DENVER","postal":"80223"},{"lat":"41.9581526","lng":"-73.0508234","id":1404106,"name":"PATRIOT INDUSTRIAL PRODUCTS","address":"118-126 COLEBROOK RIVER ROAD","country":"USA","state":"CT","city":"WINSTED","postal":"6098"},{"lat":"43.5830227","lng":"-96.7021618","id":1404107,"name":"DAKOTA FLUID POWER INC","address":"3409 N LEWIS AVE","country":"USA","state":"SD","city":"SIOUX FALLS","postal":"57104"},{"lat":"36.0856524","lng":"-115.1890086","id":1404108,"name":"AZTEC INDUS. BEARING & SUPPLY","address":"3725 WEST RUSSELL ROAD","country":"USA","state":"NV","city":"LAS VEGAS","postal":"89118"},{"lat":"36.9664415","lng":"-76.6060919","id":1404109,"name":"INDUSTRIAL GROUP","address":"105 SMITHFIELD BLVD.","country":"USA","state":"VA","city":"SMITHFIELD","postal":"23430"},{"lat":"47.6382802","lng":"-117.2378971","id":1404110,"name":"SNB TOOLS, INC","address":"12418 E 20TH AVE","country":"USA","state":"WA","city":"SPOKANE","postal":"99216"},{"lat":"27.8734727","lng":"-82.7402996","id":1404111,"name":"NESTOR SALES LLC","address":"7337 BRYAN DAIRY ROAD","country":"USA","state":"FL","city":"LARGO","postal":"33777"},{"lat":"40.3806815","lng":"-75.4798317","id":1404112,"name":"STAUFFER GLOVE & SAFETY","address":"361 EAST SIXTH STREET","country":"USA","state":"PA","city":"RED HILL","postal":"18076"},{"lat":"47.8920956","lng":"-97.0628188","id":1404113,"name":"ACME ELECTRIC TOOL CRIB OF THE NORTH","address":"PO BOX 13720","country":"USA","state":"ND","city":"GRAND FORKS","postal":"58208-3720"},{"lat":"33.696415","lng":"-117.9318568","id":1404114,"name":"MACHINE TOOLS SUPPLY - CA","address":"3505 CADILLAC AVE SUITE K-2","country":"USA","state":"CA","city":"COSTA MESA","postal":"92626"},{"lat":"33.9517741","lng":"-118.0624262","id":1404115,"name":"CENTURY MILL SUPPLY","address":"12415 LOS NIETOS RD #108","country":"USA","state":"CA","city":"SANTA FE SPRING","postal":"90670"},{"lat":"33.4161653","lng":"-94.0983975","id":1404116,"name":"INDUSTRIAL MILL & MAINTENANCE","address":"4401 WACO STREET","country":"USA","state":"TX","city":"TEXARKANA","postal":"75501"},{"lat":"44.851248","lng":"-93.1253179","id":1404117,"name":"CONTINENTAL SAFETY EQUP.","address":"2935 WATERS ROAD\nSUITE 140","country":"USA","state":"MN","city":"EAGAN","postal":"55121-2296"},{"lat":"37.8159559","lng":"-121.9942737","id":1404118,"name":"KLEEN BLAST ABRASIVES \/ CAN AM MINERALS","address":"50 OAK COURT\nSUITE 210","country":"USA","state":"CA","city":"DANVILLE","postal":"94526"},{"lat":"34.6090193","lng":"-87.0351374","id":1404119,"name":"DECATUR RUBBER & GASKET CO","address":"754 MCENTIRE LANE","country":"USA","state":"AL","city":"DECATUR","postal":"35603"},{"lat":"49.1717669","lng":"-122.6754916","id":1404120,"name":"AIRPLUS SYSTEMS LTD.","address":"UNIT 111 9295-198 STREET","country":"CANADA","state":"BC","city":"LANGLEY","postal":"V1M 3J9"},{"lat":"29.6817318","lng":"-95.1792983","id":1404121,"name":"BKW \/ APE","address":"2330 PASADENA BLVD","country":"USA","state":"TX","city":"PASADENA","postal":"77502"},{"lat":"1.2849635","lng":"103.8521653","id":1404122,"name":"PISC (S) PTE. LTD","address":"LEVEL 30 SINGAPORE LAND TOWER\n50 RAFFLES PLACE","country":"SINGAPORE","postal":"48623"},{"lat":"34.288345","lng":"-85.221855","id":1404123,"name":"J SUPPLY CO., INC.","address":"88 ADDINGTON DRIVE","country":"USA","state":"GA","city":"ROME","postal":"30165"},{"lat":"30.5965489","lng":"-96.3058389","id":1404124,"name":"UNITED RENTALS -VA, MD","address":"ATTENTION: ACCOUNTS PAYABLE\nPO BOX 30129\nVENDOR # 733987","country":"USA","state":"TX","city":"COLLEGE STATION","postal":"77842"},{"lat":"41.8500125","lng":"-86.2313321","id":1404125,"name":"CUTTING TOOLS, INC.","address":"1951 INDUSTRIAL DRIVE","country":"USA","state":"MI","city":"NILES","postal":"49120"},{"lat":"39.1363551","lng":"-85.9478897","id":1404126,"name":"PRECISION TOOLS SERVICE, INC.","address":"2426  NORCROSS DRIVE","country":"USA","state":"IN","city":"COLUMBUS","postal":"47201"},{"lat":"39.4120992","lng":"-81.451867","id":1404127,"name":"AMERICAN PRODUCERS SUPPLY CO","address":"119 SECOND STREET","country":"USA","state":"OH","city":"MARIETTA","postal":"45750"},{"lat":"27.796866","lng":"-97.4522495","id":1404128,"name":"AMIGOS EQUIPMENT CORPORATION","address":"4901 LEOPARD STREET","country":"USA","state":"TX","city":"CORPUS CHRISTI","postal":"78408"},{"lat":"39.0670039","lng":"-94.6044087","id":1404129,"name":"KC SUPPLY","address":"3306 WYOMING ST","country":"USA","state":"MO","city":"KANSAS CITY","postal":"64111"},{"lat":"41.3080361","lng":"-81.8712856","id":1404130,"name":"APPLIED MAINT.SUPPLIES & SOLUTIONS","address":"14790 FOLTZ PARKWAY","country":"USA","state":"OH","city":"STRONGSVILLE","postal":"44149"},{"lat":"35.0148934","lng":"-85.2909181","id":1404131,"name":"SOUTHEAST RUBBER & SAFETY","address":"1600 E 27TH STREET","country":"USA","state":"TN","city":"CHATTANOOGA","postal":"37404"},{"lat":"37.6928785","lng":"-97.3263314","id":1404132,"name":"GRAYBAR ELECTRIC CO.","address":"432 N. WASHINGTON\n316-265-8964","country":"USA","state":"KS","city":"WICHITA","postal":"67202"},{"lat":"28.5472951","lng":"-81.4234952","id":1404133,"name":"HD SUPPLY WHITE CAP CONST. SUP.","address":"3671 OLD WINTER GARDEN ROAD","country":"USA","state":"FL","city":"ORLANDO","postal":"32805"},{"lat":"34.0896745","lng":"-117.6881113","id":1404134,"name":"TOOLS-R-US, INC","address":"9055 CENTRAL AVENUE","country":"USA","state":"CA","city":"MONTCLAIR","postal":"91763"},{"lat":"41.239413","lng":"-78.546712","id":1404135,"name":"GEORGINO INDUSTRIAL SUPPLY - PA","address":"14892 BENNETTS VALLEY HWY\nCLEARFIELD COUNTY","country":"USA","state":"PA","city":"PENFIELD","postal":"15849"},{"lat":"29.8648428","lng":"-95.4883498","id":1404136,"name":"GHX INDUSTRIAL\/JACKSONVILLE WESTSIDE","address":"6507 W LITTLE TORK RD","country":"USA","state":"TX","city":"HOUSTON","postal":"77040"},{"lat":"43.1370343","lng":"-86.2197406","id":1404137,"name":"STRONG INDUSTRIAL SUPPLY","address":"1030 GATEWAY BLVD.","country":"USA","state":"MI","city":"NORTON SHORES","postal":"49441-2007"},{"lat":"36.0737902","lng":"-80.2320388","id":1404138,"name":"SALEM SUPPLY INC","address":"412 WAUGHTOWN ST","country":"USA","state":"NC","city":"WINSTON-SALEM","postal":"27127"},{"lat":"39.5721258","lng":"-105.1309207","id":1404139,"name":"MOTION & FLOW CONTROL PROD.-OREGON","address":"7941 SHAFFER PKWY","country":"USA","state":"CO","city":"LITTLETON","postal":"80127"},{"lat":"42.280312","lng":"-83.0024683","id":1404140,"name":"WINDSOR FACTORY SUPPLY LTD. (WFS)","address":"730 N. SERVICE RD","country":"CANADA","state":"ON","city":"WINDSOR","postal":"N8X 3J3"},{"lat":"41.0215067","lng":"-81.7589533","id":1404141,"name":"AUTOMOTIVE IND SUPP & EQUIP-AISECO","address":"241 QUADRAL DR.","country":"USA","state":"OH","city":"WADSWORTH","postal":"44281"},{"lat":"40.7748086","lng":"-73.8409874","id":1404142,"name":"TRAVERS TOOL CO. INC","address":"12815 26TH AVE.","country":"USA","state":"NY","city":"FLUSHING","postal":"11354"},{"lat":"36.204108","lng":"-94.129628","id":1404143,"name":"STAR MECHANCIAL SUPPLY, INC.","address":"122 WEST RANDALL ROAD","country":"USA","state":"AR","city":"SPRINGDALE","postal":"72764-1807"},{"lat":"41.6482405","lng":"-87.5093645","id":1404144,"name":"BLACK INDUSTRIAL SUPPLY CORP.","address":"3600 CALUMET AVE, HAMMOND, IN 46320"},{"lat":"-26.1341869","lng":"28.2876304","id":1404145,"name":"SA LEAK DETECTION","address":"13 ROAD NUMBER 5\nBRENTWOOD PARK AGRICULTURAL","country":"SOUTH AFRICA","city":"BENON,","postal":"1501"},{"lat":"38.0396457","lng":"-84.4490181","id":1404146,"name":"CONSOLIDATED ELECTRICAL DIST.(CED)","address":"1720 FORTUNE CT # 140, LEXINGTON, KY 40509"},{"lat":"36.713055","lng":"-119.7811367","id":1404147,"name":"JOHNSTON INDUST.SUP. - CA","address":"2433 S. CHERRY AVE.","country":"USA","state":"CA","city":"FRESNO","postal":"93706"},{"lat":"37.677731","lng":"-97.3403928","id":1404148,"name":"BG PRODUCTS","address":"740 S WICHITA ST","country":"USA","state":"KS","city":"WICHITA","postal":"67213"},{"lat":"39.95","lng":"-91.36","id":1404149,"name":"ABBOTT SUPPLY L.L.C.","address":"PO BOX 370","country":"USA","state":"IL","city":"QUINCY","postal":"62306-0370"},{"lat":"32.4505642","lng":"-93.7623625","id":1404150,"name":"SHREVEPORT RBR & GASKET CO","address":"6109 LINWOOD AVE.","country":"USA","state":"LA","city":"SHREVEPORT","postal":"71106"},{"lat":"34.222686","lng":"-91.971171","id":1404151,"name":"ARKANSAS MILL SUPPLY CO, INC","address":"701 COMMERCE ROAD","country":"USA","state":"AR","city":"PINE BLUFF","postal":"71601"},{"lat":"38.515348","lng":"-90.412324","id":1404152,"name":"FLUID AIR PRODUCTS, INC.","address":"12834 GRAVOIS ROAD","country":"USA","state":"MO","city":"ST LOUIS","postal":"63127"},{"lat":"49.2635186","lng":"-123.1454799","id":1404153,"name":"AIRFORCED DAYLIGHTING LTD.","address":"ROBERT GALLAGHER\n4721 WEST SECOND AVE.","country":"CANADA","state":"BC","city":"VANCOUVER","postal":"V6T 1C1"},{"lat":"42.3861207","lng":"-71.4975559","id":1404154,"name":"ANVER CORPORATION","address":"36 PARMENTER ROAD","country":"USA","state":"MA","city":"HUDSON","postal":"1749"},{"lat":"36.385503","lng":"-86.47817","id":1404155,"name":"ALLIANCE DISTRIBUTION PARTNERS LLC","address":"539 N BELVEDERE DR","country":"USA","state":"TN","city":"GALLATIN","postal":"37066"},{"lat":"41.418053","lng":"-81.489772","id":1404156,"name":"L&M TOOL & INDUSTRIAL SUPPLY INC","address":"26800 FARGO AVE, SUITE D","country":"USA","state":"OH","city":"BEDFORD HGTS","postal":"44146-1341"},{"lat":"34.017642","lng":"-118.216696","id":1404157,"name":"MRO SUPPLY   MECH DRIVES AND BELTING","address":"2915 EAST WASHINGTON BLVD.\nMADSEN ELECTRIC","country":"USA","state":"CA","city":"LOS ANGELES","postal":"90023"},{"lat":"41.683689","lng":"-86.9217158","id":1404158,"name":"SULLIVAN-PALATEK, INC","address":"1201 US HWY 20 WEST","country":"USA","state":"IN","city":"MICHIGAN CITY","postal":"46360"},{"lat":"43.0118969","lng":"-83.5319641","id":1404159,"name":"INDUSTRIAL TOOL LLC","address":"9126 LAPEER RD #2","country":"USA","state":"MI","city":"DAVIDSON","postal":"48423"},{"lat":"45.5538625","lng":"-122.7285437","id":1404160,"name":"CONNEXUS INDUSTRIES, INC","address":"4270 NW YEON AVE.","country":"USA","state":"OR","city":"PORTLAND","postal":"97210"},{"lat":"40.7558018","lng":"-73.9331348","id":1404161,"name":"CARTER, MILCHMAN & FRANK, INC.","address":"28-10 37TH AVENUE","country":"USA","state":"NY","city":"LONG ISLAND CITY","postal":"11101"},{"lat":"29.7618165","lng":"-95.3072691","id":1404162,"name":"TRICON TOOL & SUPPLY INC","address":"5809 CLINTON DRIVE","country":"USA","state":"TX","city":"HOUSTON","postal":"77020"},{"lat":"42.4575406","lng":"-83.4642718","id":1404163,"name":"J.H. BENNETT AND COMPANY, INC.","address":"22975 VENTURE DRIVE","country":"USA","state":"MI","city":"NOVI","postal":"48375"},{"lat":"30.6035255","lng":"-87.9036047","id":1404164,"name":"OLDS FILTRATION ENG. CORP.","address":"PO DRAWER 970\n** USE TAG PO**","country":"USA","state":"AL","city":"DAPHNE","postal":"36506"},{"lat":"40.1216234","lng":"-75.3995999","id":1404165,"name":"WACO FILTERS","address":"2546 GENERAL ARMISTEAD AVENUE","country":"USA","state":"PA","city":"NORRISTOWN","postal":"19403"},{"lat":"36.6609808","lng":"-121.6396456","id":1404166,"name":"CSC OF SALINAS","address":"721-B ABBOTT ST","country":"USA","state":"CA","city":"SALINAS","postal":"93901"},{"lat":"30.726253","lng":"-88.0609995","id":1404167,"name":"GULF COAST MARINE SUPPLY CO.","address":"501 STIMRAD RD.","country":"USA","state":"AL","city":"MOBILE","postal":"36610"},{"lat":"42.594019","lng":"-83.03476","id":1404168,"name":"E & R INDUSTRIAL SALES, INC","address":"40800 ENTERPRISE DR","country":"USA","state":"MI","city":"STERLING HEIGHTS","postal":"48314"},{"lat":"50.8674876","lng":"3.4421011","id":1404169,"name":"CEBEO NV  (VANAS)","address":"EUGENE BEKAERTLAAN 63\nVAT BE 0405.318.953","country":"BELGIUM","city":"WAREGEM","postal":"8790"},{"lat":"44.783881","lng":"-68.792133","id":1404170,"name":"N H BRAGG & SONS","address":"92 PERRY RD.","country":"USA","state":"ME","city":"BANGOR","postal":"4401"},{"lat":"42.0298045","lng":"-84.7575752","id":1404171,"name":"MICHIGAN REBUILD & AUTOMATION","address":"7460 HERRIG RD","country":"USA","state":"MI","city":"LITCHFIELD","postal":"49252"},{"lat":"41.6801221","lng":"-83.7198306","id":1404172,"name":"BOSTWICK-BRAUN COMPANY","address":"7349 CROSSLEIGH COURT","country":"USA","state":"OH","city":"TOLEDO","postal":"43617"},{"lat":"37.0914808","lng":"-88.6766366","id":1404173,"name":"HENRY A PETTER SUPPLY CO INC","address":"5110 CHARTER OAK DR.","country":"USA","state":"KY","city":"PADUCAH","postal":"42001"},{"lat":"33.8667023","lng":"-85.0335149","id":1404174,"name":"L&W SPECIALTY PRODUCTS, LLC","address":"2029 PLEASANT GROVE RD","country":"USA","state":"GA","city":"TEMPLE","postal":"30179"},{"lat":"36.3532995","lng":"-86.6856979","id":1404175,"name":"DIVERSIFIED SALES & SERVICE","address":"1161 MADISON CREEK RD","country":"USA","state":"TN","city":"GOODLETTSVILLE","postal":"37072"},{"lat":"42.262857","lng":"-71.790213","id":1404176,"name":"OMNI SERVICES INC.","address":"12 EAST WORCESTER STREET","country":"USA","state":"MA","city":"WORCESTER","postal":"1604"},{"lat":"43.0810155","lng":"-75.1770389","id":1404177,"name":"NORTHERN SAFETY CO. INC.","address":"232 INDUSTRIAL PARK DR.","country":"USA","state":"NY","city":"FRANKFORT","postal":"13340"},{"lat":"47.4839538","lng":"-122.2769057","id":1404178,"name":"MARSHALL TOOL & SUPPLY - WA","address":"4453 S. 134TH PLACE","country":"USA","state":"WA","city":"SEATTLE","postal":"98168"},{"lat":"40.3575934","lng":"-75.925506","id":1404179,"name":"YEAGER SUPPLY, INC.","address":"1440 N. 6TH STREET","country":"USA","state":"PA","city":"READING","postal":"19601"},{"lat":"30.8310808","lng":"-83.2773172","id":1404180,"name":"WHITEHEAD HARDWARE\/MILLER","address":"211 EAST HILL AVE","country":"USA","state":"GA","city":"VALDOSTA","postal":"31603"},{"lat":"36.144592","lng":"-86.7207314","id":1404181,"name":"IR-G INDUST. RUB & GASKET-NASHV","address":"1500 ELM HILL PIKE","country":"USA","state":"TN","city":"NASHVILLE","postal":"37210"},{"lat":"33.9599977","lng":"-80.3606667","id":1404182,"name":"FILTER SALES & SERVICE","address":"620 ELECTRIC DRIVE","country":"USA","state":"SC","city":"SUMTER","postal":"29153"},{"lat":"43.0787163","lng":"-88.0683174","id":1404183,"name":"T&A INDUSTRIAL DISTRIBUTORS","address":"12550 W ROBIN LN, BROOKFIELD, WI 53005"},{"lat":"41.4257096","lng":"-81.8056546","id":1404184,"name":"APPLIED INDUSTRIAL TECHNOLOGIES","address":"15504 INDUSTRIAL PARKWAY","country":"USA","state":"OH","city":"CLEVELAND","postal":"44135"},{"lat":"37.6411409","lng":"-122.1313702","id":1404185,"name":"AIR & TOOL ENGINEERING CO.","address":"2352 FOLEY STREET","country":"USA","state":"CA","city":"HAYWARD","postal":"94545"},{"lat":"47.5928083","lng":"-122.3159562","id":1404186,"name":"AMAZON.COM","address":"1200 12TH AVE S","country":"USA","state":"WA","city":"SEATTLE","postal":"98144"},{"lat":"47.5774713","lng":"-122.3283904","id":1404187,"name":"THE PART WORKS INC.","address":"2900 FOURTH AVE. S.","country":"USA","state":"WA","city":"SEATTLE","postal":"98134-1915"},{"lat":"44.1847087","lng":"-88.0799997","id":1404188,"name":"ENDRIES INTERNAT'LL SUBID. OF WOLSELEY","address":"714 WEST RYAN STREET","country":"USA","state":"WI","city":"BRILLION","postal":"54110"},{"lat":"36.7559351","lng":"-76.2299424","id":1404189,"name":"J.H NORTON CO. INC T\/A","address":"1006 EXECUTIVE BLVD.","country":"USA","state":"VA","city":"CHESAPEAKE","postal":"23320"},{"lat":"33.942127","lng":"-84.7029701","id":1404190,"name":"MRO SUPPLY CO. - GA","address":"5200 DALLAS HWY\nSUITE 200, PMB 251","country":"USA","state":"GA","city":"POWDER SPRINGS","postal":"30127"},{"lat":"39.178314","lng":"-84.520511","id":1404191,"name":"GENERAL FACTORY\/DO IT BEST","address":"4811 WINTON RD","country":"USA","state":"OH","city":"CINCINNATI","postal":"45232"},{"lat":"42.1054773","lng":"-87.9086479","id":1404192,"name":"MIDWEST INDUSTRIAL TOOLS \/ DOALL.","address":"1480 SOUTH WOLF ROAD\nD\/D A DGI SUPPLY","country":"USA","state":"IL","city":"WHEELING","postal":"60090"},{"lat":"39.8112685","lng":"-105.1405552","id":1404193,"name":"CONSTRUCTION EQUIP AND SUP. ARVADA CO","address":"12650 WEST 64TH AVE\nUNIT E248","country":"USA","state":"CO","city":"ARVADA","postal":"80004"},{"lat":"42.8851835","lng":"-79.2551582","id":1404194,"name":"WESTPIER MARINE & INDUSTRIAL SUPPLY","address":"PO BOX 367","country":"CANADA","state":"ON","city":"PORT COLBORNE","postal":"L3K 1B7"},{"lat":"50.0597841","lng":"-110.7220229","id":1404195,"name":"POROCEL OF CANADA LTD","address":"2159 BRIER PARK PI NW\nJACKIE DAVIES A\/P","country":"CANADA","state":"AB","city":"MEDICINE HAT","postal":"T1C1S7"},{"lat":"42.5411163","lng":"-83.3664438","id":1404196,"name":"BARON TOOLS","address":"6655 HEARTHSIDE COURT","country":"USA","state":"MI","city":"WEST BLOOMFIELD","postal":"48322"},{"lat":"39.0310369","lng":"-94.6946183","id":1404197,"name":"IBT, INC.","address":"9400 W. 55TH","country":"USA","state":"KS","city":"MERRIAM","postal":"66203"},{"lat":"42.6762213","lng":"-83.2434291","id":1404198,"name":"TOTAL FILTRATION SERVICES","address":"AIR FILTER SALES\n2521 COMMERCIAL DRIVE","country":"USA","state":"MI","city":"AUBURN HILLS","postal":"48326-1789"},{"lat":"35.300157","lng":"-81.881555","id":1404199,"name":"LUCKY ONE, INC","address":"248 NEWTON RD","country":"USA","state":"NC","city":"FOREST CITY","postal":"28043"},{"lat":"38.5703508","lng":"-91.0739793","id":1404200,"name":"ALL THINGS SAFETY","address":"851 VOSSBRINK DRIVE","country":"USA","state":"MO","city":"WASHINGTON","postal":"63090"},{"lat":"47.0259187","lng":"-122.9294358","id":1404201,"name":"L.G. ISAACSON CO, INC.","address":"2140 MOTTMAN RD SW","country":"USA","state":"WA","city":"TUMWATER","postal":"98512"},{"lat":"39.7717565","lng":"-104.893793","id":1404202,"name":"AIS INDUSTRIAL AND CONSTRUCTION SUPPLY","address":"3900 ULSTER STREET","country":"USA","state":"CO","city":"DENVER","postal":"80207"},{"lat":"42.380332","lng":"-71.1007987","id":1404203,"name":"H.D. CHASEN CO","address":"40 LAKE STREET","country":"USA","state":"MA","city":"SOMERVILLE","postal":"2143"},{"lat":"44.868237","lng":"-93.4020545","id":1404204,"name":"REPLENEX","address":"9815 WEST 74TH STREET","country":"USA","state":"MN","city":"EDEN PRAIRIE","postal":"55344"},{"lat":"28.5053564","lng":"-81.7141853","id":1404205,"name":"JKS POWDER SERVICES","address":"2242 FENTON AVE","country":"USA","state":"FL","city":"CLERMONT","postal":"34711"},{"lat":"30.6971766","lng":"-88.0422962","id":1404206,"name":"TURNER SUPPLY COMPANY","address":"250 NORTH ROYAL STREET","country":"USA","state":"AL","city":"MOBILE","postal":"36602"},{"lat":"33.817917","lng":"-118.308313","id":1404207,"name":"NATES INDUSTRIAL TOOLS, INC.","address":"22904 S. WESTERN AVE","country":"USA","state":"CA","city":"TORRANCE","postal":"90501"},{"lat":"43.0107575","lng":"-83.6985322","id":1404208,"name":"HUBBARD SUPPLY, INC","address":"901 W. SECOND ST\n101577","country":"USA","state":"MI","city":"FLINT","postal":"48503"},{"lat":"32.3501746","lng":"-95.3183528","id":1404209,"name":"AAXION, INC.","address":"1602 W. ERWIN","country":"USA","state":"TX","city":"TYLER","postal":"75702"},{"lat":"-37.8239127","lng":"140.7569125","id":1404210,"name":"KPA INDUSTRIAL","address":"9 RITANA ROAD","country":"AUSTRALIA","city":"MOUNT GAMBIER","postal":"5290"},{"lat":"41.7809615","lng":"-72.6315678","id":1404211,"name":"K & S DISTRIBUTORS, INC. - CT","address":"50 OAKLAND AVE","country":"USA","state":"CT","city":"EAST HARTFORD","postal":"6108"},{"lat":"42.9626715","lng":"-82.3436995","id":1404212,"name":"LAMONS CANADA LTD","address":"835 UPPER CANADA DRIVE","country":"CANADA","state":"ON","city":"SARNIA","postal":"N7W 1A3"},{"lat":"30.1817368","lng":"-81.7146714","id":1404213,"name":"HOSE POWER USA","address":"50 INDUSTRIAL LOOP NORTH","country":"USA","state":"FL","city":"ORANGE PARK","postal":"32073"},{"lat":"29.651492","lng":"-95.256654","id":1404214,"name":"TOMMY TOOLS, INC.","address":"9006 AIRPORT BLVD.","country":"USA","state":"TX","city":"HOUSTON","postal":"77061"},{"lat":"45.5654937","lng":"-122.545867","id":1404215,"name":"FINISHING TECHNOLOGIES, INC","address":"5924 NE 112TH AVENUE","country":"USA","state":"OR","city":"PORTLAND","postal":"97220"},{"lat":"45.3783033","lng":"-122.7724647","id":1404216,"name":"HOSE AND SUPPLY WAREHOUSE","address":"19632 SW 90TH CT.","country":"USA","state":"OR","city":"TUALATIN","postal":"97062"},{"lat":"42.897915","lng":"-85.5307309","id":1404217,"name":"BOND FLUIDAIRE CO.","address":"5506 36TH STREET SE","country":"USA","state":"MI","city":"GRAND RAPIDS","postal":"49512"},{"lat":"42.5937842","lng":"-83.0465011","id":1404218,"name":"KBC TOOLS, INC.","address":"6300 18 MILE HIGHWAY","country":"USA","state":"MI","city":"STERLING HEIGHTS","postal":"48314"},{"lat":"43.8523376","lng":"-79.3945958","id":1404219,"name":"ACKLANDS-GRAINGER INC.","address":"90 WEST BEAVER CREEK RD.","country":"CANADA","state":"ON","city":"RICHMOND HILL","postal":"L4B 1E7"},{"lat":"31.5894173","lng":"-84.1510158","id":1404220,"name":"GEORGIA INDUSTRIAL SUPPLY - GA","address":"908 N. WASHINGTON STREET","country":"USA","state":"GA","city":"ALBANY","postal":"31701"},{"lat":"32.8261464","lng":"-83.6143472","id":1404221,"name":"BEARINGS & DRIVES \/ B & D TECHNOLOGIES","address":"607 LOWER POPLAR STREET","country":"USA","state":"GA","city":"MACON","postal":"31208-4325"},{"lat":"37.0080704","lng":"-86.3889085","id":1404222,"name":"SOUTHERN BLUEGRASS SUPPLY, INC.","address":"217 NEW PORTER PIKE","country":"USA","state":"KY","city":"BOWLING GREEN","postal":"42103"},{"lat":"42.4493908","lng":"-83.016835","id":1404223,"name":"PRODUCTION TOOL SUP. REX \/ SPECIALTY TOOL","address":"8655 E. EIGHT MILE RD","country":"USA","state":"MI","city":"WARREN","postal":"48089"},{"lat":"47.3424911","lng":"-122.2305066","id":1404224,"name":"APPLICATION SPECIALTIES, INC.","address":"3941 \"B\" STREET, N.W.","country":"USA","state":"WA","city":"AUBURN","postal":"98001"},{"lat":"39.9151005","lng":"-86.2553281","id":1404225,"name":"ALCORN INDUSTRIAL SUPPLY","address":"5412 ROCK HAMPTON COURT","country":"USA","state":"IN","city":"INDIANAPOLIS","postal":"46268"},{"lat":"33.9795024","lng":"-86.0416073","id":1404226,"name":"GADSDEN INDUSTRIAL DISTRIBUTOR","address":"192 WIGGINS STREET","country":"USA","state":"AL","city":"RAINBOW CITY","postal":"35906-6710"},{"lat":"34.0463752","lng":"-118.3650523","id":1404227,"name":"J & K SUPPLY, INC. DBA.J FAHION SUPPLY","address":"1623 S. GENESEE AVE","country":"USA","state":"CA","city":"LOS ANGELES","postal":"90019"},{"lat":"30.2868538","lng":"-90.958511","id":1404228,"name":"B.P SERVICE & REPAIR","address":"38433 WEST AIRLINE DR","country":"USA","state":"LA","city":"PRAIRIEVILLE","postal":"70769"},{"lat":"40.2015361","lng":"-75.1778397","id":1404229,"name":"SCHWEITZER & CROSSON INC.","address":"460 CAREDEAN DRIVE","country":"USA","state":"PA","city":"HORSHAM","postal":"19044"},{"lat":"37.6821275","lng":"-97.3228395","id":1404230,"name":"SPRAY EQUIPMENT SERVICE CENTER","address":"311 S. PATTIE","country":"USA","state":"KS","city":"WICHITA","postal":"67211"},{"lat":"28.540601","lng":"-81.385264","id":1404231,"name":"ANIXTER POWER SOLUTIONS VA, TX","address":"501 W CHURCH ST STE 100","country":"USA","state":"FL","city":"ORLANDO","postal":"32805-2270"},{"lat":"35.7272997","lng":"-81.321676","id":1404232,"name":"ALLIED INDUSTRIAL SUPPLY \/ BEARINGS","address":"886 3RD AVENUE SE","country":"USA","state":"NC","city":"HICKORY","postal":"28602"},{"lat":"41.8453019","lng":"-91.692317","id":1404233,"name":"FIVE STAR SHOP SERVICE","address":"117 2ND STREET SE","country":"USA","state":"IA","city":"SWISHER","postal":"52338"},{"lat":"42.8871805","lng":"-85.5494688","id":1404234,"name":"PROGRESSIVE SURFACE","address":"4695 DANVERS DR. S.E","country":"USA","state":"MI","city":"GRAND RAPIDS","postal":"49512"},{"lat":"39.9492309","lng":"-76.7440666","id":1404235,"name":"R.G. BREWTON, INC","address":"631 SOUTH RICHLAND AVE\nDOOR 14 (RG BREWTON)","country":"USA","state":"PA","city":"YORK","postal":"17403"},{"lat":"40.2998218","lng":"-75.1606603","id":1404236,"name":"TRI-STATE INDUSTRIAL SUPPLIES OF PA, INC","address":"30 IRON HILL RD","country":"USA","state":"PA","city":"NEW BRITAIN","postal":"18901-5308"},{"lat":"38.39","lng":"-86.93","id":1404237,"name":"C.A GENTRY & ASSOCIATES, INC","address":"P.O BOX 404","country":"USA","state":"IN","city":"JASPER","postal":"47547-0404"},{"lat":"39.3256933","lng":"-84.467079","id":1404238,"name":"F.B.  WRIGHT HAMILTON, OH","address":"4689 ASHLEY DRIVE","country":"USA","state":"OH","city":"HAMILTON","postal":"45011"},{"lat":"43.0284963","lng":"-74.9548978","id":1404239,"name":"BROWN-RANDALL, INC.","address":"5519 STATE HWY NO.5 EAST HERKIMER R.D. 1","country":"USA","state":"NY","city":"HERKIMER","postal":"13350"},{"lat":"42.6827292","lng":"-70.92024","id":1404240,"name":"TODD TOOL & ABRASIVE SYSTEMS INC","address":"56 TURNPIKE RD RTE.1","country":"USA","state":"MA","city":"IPSWICH","postal":"1938"},{"lat":"47.4567042","lng":"-122.2549836","id":1404241,"name":"STAR RENTALS & SALES","address":"PO BOX 58090","country":"USA","state":"WA","city":"TUKWILA","postal":"98138"},{"lat":"40.721596","lng":"-74.265024","id":1404242,"name":"PENN TOOL COMPANY - MAPLEWOOD NJ","address":"1776 SPRINGFIELD AVE.","country":"USA","state":"NJ","city":"MAPLEWOOD","postal":"7040"},{"lat":"33.3514849","lng":"-111.8373424","id":1404243,"name":"SPRINGER INDUSTRIAL EQUIPMENT","address":"3164 NORTH COLORADO STREET","country":"USA","state":"AZ","city":"CHANDLER","postal":"85225"},{"lat":"42.7190725","lng":"-73.6834353","id":1404244,"name":"BDI","address":"1 SPRING AVE","country":"USA","state":"MI","city":"TROY","postal":"12180"},{"lat":"33.8506317","lng":"-117.8477187","id":1404245,"name":"SHAMROCK SUPPLY COMPANY","address":"3366 EAST LA PALMA AVE.","country":"USA","state":"CA","city":"ANAHEIM","postal":"92806"},{"lat":"42.2704884","lng":"-85.5265349","id":1404246,"name":"SAFETY SERVICES, INC.","address":"5286 WYNN ROAD","country":"USA","state":"MI","city":"KALAMAZOO","postal":"49048"},{"lat":"33.3469308","lng":"-86.7993182","id":1404247,"name":"STEWART SUPPLY CO.","address":"2068 VALLEYDALE TERRACE","country":"USA","state":"AL","city":"BIRMINGHAM","postal":"35244"},{"lat":"42.101758","lng":"-72.0655421","id":1404248,"name":"SAFETY SOURCE N.E.","address":"78 WHITTEMORE RD","country":"USA","state":"MA","city":"STURBRIDGE","postal":"1566"},{"lat":"49.8994888","lng":"-97.2016585","id":1404249,"name":"BROTHERS INDUSTRIAL SUPPLY LTD\/MEP","address":"725 CENTURY STREET","country":"CANADA","state":"MB","city":"WINNIPEG","postal":"R3H 0M2"},{"lat":"43.1559694","lng":"-75.2133719","id":1404250,"name":"BEATON INDUSTRIAL, INC","address":"6083 TRENTON RD.\n\nSHEILA BEATON","country":"USA","state":"NY","city":"UTICA","postal":"13502"},{"lat":"43.400266","lng":"-80.484473","id":1404251,"name":"FASTENAL COMPANY - CA","address":"860 TRILLIUM DR","country":"CANADA","state":"ON","city":"KITCHENER","postal":"N2R 1K4"},{"lat":"39.4786786","lng":"-76.6529329","id":1404252,"name":"ZENMAR POWER TOOL & HOIST SYSTEMS","address":"243 COCKEYSVILLE ROAD","country":"USA","state":"MD","city":"COCKEYSVILLE","postal":"21030"},{"lat":"41.3197616","lng":"-81.3489786","id":1404253,"name":"A2Z INDUSTRIAL DISTRIBUTOR","address":"114 BARRINGTON TOWN SQ, STE 317","country":"USA","state":"OH","city":"AURORA","postal":"44202"},{"lat":"37.6557536","lng":"-97.385679","id":1404254,"name":"WM F. HURST CO., INC.","address":"2121 S.W BLVD.","country":"USA","state":"KS","city":"WICHITA","postal":"67213"},{"lat":"42.3926126","lng":"-87.8855811","id":1404255,"name":"ALDON COMPANY INC","address":"3410 SUNSET AVE","country":"USA","state":"IL","city":"WAUKEGAN","postal":"60087-3295"},{"lat":"32.2409114","lng":"-90.1670321","id":1404256,"name":"WILLIAMS EQUIPMENT & SUPPLY CO INC","address":"583 OLD HIGHWAY 49S","country":"USA","state":"MS","city":"RICHLAND","postal":"39218"},{"lat":"44.0814528","lng":"-70.196602","id":1404257,"name":"BUTLER BROTHERS","address":"2001 LISBON ST","country":"USA","state":"ME","city":"LEWISTON","postal":"4243"},{"lat":"45.0197077","lng":"-93.1588209","id":1404258,"name":"UNITED RENTALS -MN","address":"1380 WEST COUNTY ROAD C\nVENDOR # 733987","country":"USA","state":"MN","city":"ROSEVILLE","postal":"55113"},{"lat":"36.7015963","lng":"-119.7821452","id":1404259,"name":"CALIFORNIA INDUSTRIAL RUBBER","address":"2732 SOUTH CHERRY AVE","country":"USA","state":"CA","city":"FRESNO","postal":"93706"},{"lat":"42.2455803","lng":"-84.4037029","id":1404260,"name":"JACKSON TOOL","address":"P.O BOX 229","country":"USA","state":"MI","city":"JACKSON","postal":"49204-0229"},{"lat":"30.3034804","lng":"-89.7824969","id":1404261,"name":"JGILS, LLC","address":"37159 BEN THOMAS ROAD","country":"USA","state":"LA","city":"SLIDELL","postal":"70460"},{"lat":"51.593722","lng":"-2.40123","id":1404262,"name":"TUTEX","address":"FIRING CLOSE FARM WICKWAR\nVAT # 183505801","country":"UNITED KINGDOM","city":"WOTTON-UNDER-EDGE","postal":"12 8PE"},{"lat":"40.8089307","lng":"-73.6613387","id":1404263,"name":"GLOBAL EQUIPMENT CO.-SYSTEMAX","address":"11 HARBOR PARK DRIVE","country":"USA","state":"NY","city":"PORT WASHINGTON","postal":"11050"},{"lat":"42.8059853","lng":"-86.0760928","id":1404264,"name":"HOLLAND P.T INC","address":"304 GARDEN AVE","country":"USA","state":"MI","city":"HOLLAND","postal":"49424"},{"lat":"47.6634885","lng":"-122.3807112","id":1404265,"name":"BALLARD INDUSTRIAL (HARDWARE)","address":"4749 BALLARD AVE NW","country":"USA","state":"WA","city":"SEATTLE","postal":"98107"},{"lat":"39.8464214","lng":"-75.3608439","id":1404266,"name":"HARDWARE & SUPPLY CO OF CHESTE","address":"316 EDGEMONT AVENUE","country":"USA","state":"PA","city":"CHESTER","postal":"19013"},{"lat":"47.5810474","lng":"-122.3262958","id":1404267,"name":"WESTERN SAFETY","address":"2425 6TH AVE S","country":"USA","state":"WA","city":"SEATTLE","postal":"98134"},{"lat":"-33.6420591","lng":"151.1346305","id":1404268,"name":"DRILLERS WORLD AUSTRALIA PTY. LTD","address":"UNIT 9  2 MARINA CLOSE\nENTRANCE OFF HAMLEY ROAD","country":"AUSTRALIA","city":"MT KURING GAI NSW","postal":"2080"},{"lat":"44.7120592","lng":"-63.5726408","id":1404269,"name":"TTL SUPPLY LTD","address":"78 BURNBRIDGE AVE","country":"CANADA","state":"NS","city":"DARTMOUTH","postal":"B3B 0G7"},{"lat":"32.558887","lng":"-116.9362349","id":1404270,"name":"DUSOL, LLC","address":"9668 HEINRICH HERTZ DRIVE\nSUITE G","country":"USA","state":"CA","city":"SAN DIEGO","postal":"92154"},{"lat":"40.2894354","lng":"-79.5692995","id":1404271,"name":"ARCO ENTERPRISES, INC","address":"1125 GARDEN ST","country":"USA","state":"PA","city":"GREENSBURG","postal":"15601"},{"lat":"30.3816709","lng":"-97.7131721","id":1404272,"name":"GUARDIAN INDUSTRIAL SUPPLY LLC","address":"2012 CENTIMETER CIRCLE","country":"USA","state":"TX","city":"AUSTIN","postal":"78758"},{"lat":"40.7770931","lng":"-73.4112069","id":1404273,"name":"MSC INDUSTRIAL SUPPLY CO","address":"75 MAXESS RD","country":"USA","state":"NY","city":"MELVILLE","postal":"11747"},{"lat":"60.1609164","lng":"24.7276565","id":1404274,"name":"TEKNOMA OY","address":"PL 75\nTIISTINNIITYNTIE 4","country":"FINLAND","city":"ESPOO","postal":"2230"},{"lat":"33.5235286","lng":"-86.7747456","id":1404275,"name":"RAM TOOL & SUPPLY CO. - AL, TN","address":"4024 3RD AVE S","country":"USA","state":"AL","city":"BIRMINGHAM","postal":"35222"},{"lat":"36.180746","lng":"-85.463877","id":1404276,"name":"FLUITEK CORPORATION","address":"1100A CHOCOLATE DR.","country":"USA","state":"TN","city":"COOKEVILLE","postal":"38501"},{"lat":"39.2449483","lng":"-84.7709703","id":1404277,"name":"F & M MAFCO, INC.","address":"9149 DRY FORK RD.","country":"USA","state":"OH","city":"HARRISON","postal":"45030"},{"lat":"29.4793158","lng":"-98.6398442","id":1404278,"name":"SUNBELT MILL SUPPLY","address":"7715 GRISSOM ROAD","country":"USA","state":"TX","city":"SAN ANTONIO","postal":"78251"},{"lat":"42.3348207","lng":"-83.09879","id":1404279,"name":"CHOCTAW-KAUL DISTRIBUTION","address":"3540 VINEWOOD AVE.","country":"USA","state":"MI","city":"DETROIT","postal":"48208"},{"lat":"41.70661","lng":"-87.6199492","id":1404280,"name":"ROOT BROTHERS MFG. & SUPPLY CO","address":"10317 SOUTH MICHIGAN AVE.","country":"USA","state":"IL","city":"CHICAGO","postal":"60628"},{"lat":"36.1457045","lng":"-95.9004465","id":1404281,"name":"C4 INCORPORATED","address":"6746 EAST 12TH STREET","country":"USA","state":"OK","city":"TULSA","postal":"74112"},{"lat":"42.4651186","lng":"-83.2809538","id":1404282,"name":"SOURCEHUB LLC -  MI","address":"24175 TELGRAPH ROAD\nSUITE 120","country":"USA","state":"MI","city":"SOUTHFIELD","postal":"48033"},{"lat":"35.0369227","lng":"-78.895891","id":1404283,"name":"INDUSTRIAL POWER, INC.","address":"703 WHITFIELD STREET","country":"USA","state":"NC","city":"FAYETTEVILLE","postal":"28306"},{"lat":"44.19","lng":"-88.4599999","id":1404284,"name":"JETA CORPORATION","address":"PO BOX 336","country":"USA","state":"WI","city":"NEENAH","postal":"54957-0336"},{"lat":"43.0295848","lng":"-89.4043046","id":1404285,"name":"CONNEY SAFETY PRODUCTS, LLC","address":"3202 LATHAM DR","country":"USA","state":"WI","city":"MADISON","postal":"53713"},{"lat":"42.4714315","lng":"-83.0013049","id":1404286,"name":"WHOLESALE TOOL COMPANY, INC.","address":"12155 STEPHENS DRIVE","country":"USA","state":"MI","city":"WARREN","postal":"48089-0068"},{"lat":"42.13","lng":"-88.08","id":1404287,"name":"GRAINGER SOURCING","address":"ACCOUNTS PAYABLE\nMW-H11","country":"USA","state":"IL","city":"PALATINE","postal":"60038-000"},{"lat":"40.766029","lng":"-73.315944","id":1404288,"name":"JBSC, CORP. (ALLSTATE GASKET & PACKING)","address":"31 PROSPECT PLACE","country":"USA","state":"NY","city":"DEER PARK","postal":"11729"},{"lat":"39.8197359","lng":"-84.1662127","id":1404289,"name":"DAYTON TOOL CRIB","address":"3348 NEEDMORE ROAD","country":"USA","state":"OH","city":"DAYTON","postal":"45414"},{"lat":"39.909698","lng":"-86.244429","id":1404290,"name":"WURTH SERVICE SUPPLY, INC.","address":"4935 W.86TH STREET\nDOOR R-8 OR R-9","country":"USA","state":"IN","city":"INDIANAPOLIS","postal":"46268-0957"},{"lat":"29.7278582","lng":"-95.3329221","id":1404291,"name":"TOP TOOLING INC.","address":"1340 MUNGER STREET\nRUTH TORRES, A\/P","country":"USA","state":"TX","city":"HOUSTON","postal":"77023"},{"lat":"38.6624502","lng":"-90.4444098","id":1404292,"name":"INDOFF INC","address":"PO BOX 46900","country":"USA","state":"MO","city":"SAINT LOUIS","postal":"63146-4206"},{"lat":"39.9496138","lng":"-91.3744325","id":1404293,"name":"BLACK & COMPANY","address":"2534 LOCUST ST","country":"USA","state":"IL","city":"QUINCY","postal":"62301"},{"lat":"32.8198171","lng":"-116.9782504","id":1404294,"name":"S.L. FUSCO INC","address":"1148 BERT ACOSTA\nGKN CHEMTRONICS TOOL CRIB 50","country":"USA","state":"CA","city":"EL CAJON","postal":"92022"},{"lat":"47.5302728","lng":"-52.8299997","id":1404295,"name":"UNITED RENTALS OF CANADA","address":"1269 TOPSAIL ROAD","country":"CANADA","city":"MOUNT PEARL","postal":"A1N 2Y2"},{"lat":"46.2262757","lng":"-119.1065968","id":1404296,"name":"EMPIRE RUBBER & SUPPLY","address":"1428 WEST STREET","country":"USA","state":"WA","city":"PASCO","postal":"99301"},{"lat":"36.381126","lng":"-79.6694009","id":1404297,"name":"ISOMETRICS, INC.","address":"1266 NORTH SCALES STREET","country":"USA","state":"NC","city":"REIDSVILLE","postal":"27320"},{"lat":"48.7585724","lng":"-122.4668585","id":1404298,"name":"WESSPUR TREE EQUIPMENT, INC.","address":"2121 IRON STREET","country":"USA","state":"WA","city":"BELLINGHAM","postal":"98225"},{"lat":"43.1820311","lng":"-79.4704588","id":1404299,"name":"MSC INDUSTRIAL SUPPLY-CANADA","address":"4660 DELTA WAY","country":"CANADA","state":"ON","city":"BEAMSVILLE","postal":"L0R 1B4"},{"lat":"29.9574845","lng":"-90.0988465","id":1404300,"name":"OLIVER H. VAN HORN CO., INC.","address":"4100 EUPHROSINE ST","country":"USA","state":"LA","city":"NEW ORLEANS","postal":"70125"},{"lat":"28.9658602","lng":"-95.3722407","id":1404301,"name":"EVCO INDUSTRIAL HARDWARE, INC.","address":"606 N. BRAZOSPORT BOULEVARD\nNOLA DENT","country":"USA","state":"TX","city":"FREEPORT","postal":"77541"},{"lat":"35.7182401","lng":"-95.3413832","id":1404302,"name":"ROUGHNECK SUPPLY LLC","address":"2711 SOUTH YORK","country":"USA","state":"OK","city":"MUSKOGEE","postal":"74403"},{"lat":"32.4287144","lng":"-99.7294946","id":1404303,"name":"ABILENE FASTENER SUPPLY INC","address":"1641 S. TREADAWAY","country":"USA","state":"TX","city":"ABILENE","postal":"79604"},{"lat":"39.845532","lng":"-88.9403029","id":1404304,"name":"DCT INDUSTRIAL SUPPLY CO.","address":"410 N JASPER STREET\nAUTOCRIB CUSTOEMR STOCK","country":"USA","state":"IL","city":"DECATUR","postal":"62521"},{"lat":"21.2986354","lng":"-158.1022365","id":1404305,"name":"C AND F MACHINERY CORP.","address":"91-060 HANUA STREET","country":"USA","state":"HI","city":"KAPOLEI","postal":"96707-1723"},{"lat":"29.2268521","lng":"-81.0517895","id":1404306,"name":"A.A. CASEY","address":"1100 N. NOVA ROAD","country":"USA","state":"FL","city":"DAYTONA BEACH","postal":"32117"},{"lat":"35.6132438","lng":"-88.8340279","id":1404307,"name":"JACKSON INDUSTRIAL SALES INC.","address":"224 STATE ST, JACKSON, TN 38301"},{"lat":"34.0139268","lng":"-118.0595918","id":1404308,"name":"INDUSTRIAL SPECIALTY PRODUCTS","address":"3731 A-SAN GABRIEL RIVER PARKWAY","country":"USA","state":"CA","city":"PICO RIVERA","postal":"90660"},{"lat":"42.0437915","lng":"-72.5325946","id":1404309,"name":"MCGILL HOSE & COUPLING, INC.","address":"41 BENTON DR","country":"USA","state":"MA","city":"EAST LONGMEADOW","postal":"1028"},{"lat":"33.5745685","lng":"-86.4814898","id":1404310,"name":"ORS NASCO \/ ESSENDANT","address":"2545 U S HIGHWAY 78\nSUITE 100","country":"USA","state":"AL","city":"MOODY","postal":"35004"},{"lat":"41.8611","lng":"-88.287558","id":1404311,"name":"EMERGENT SAFETY SUPPLY ILLINOIS","address":"1055 KINGSLAND DR, BATAVIA, IL 60510"},{"lat":"36.8633702","lng":"-87.4893157","id":1404312,"name":"CLEAN AIR TECHNOLOGY SOLUTIONS LLC","address":"1209 S VIRGINIA ST, HOPKINSVILLE, KY 42240"},{"lat":"31.5416614","lng":"-97.1463946","id":1404313,"name":"RICHARDS SUPPLY COMPANY","address":"2200 FRANKLIN AVE","country":"USA","state":"TX","city":"WACO","postal":"76701"},{"lat":"45.5210521","lng":"-122.6573295","id":1404314,"name":"PARAMOUNT SUP. - BILL TO PER PO","address":"816 SE  ASH ST","country":"USA","state":"OR","city":"PORTLAND","postal":"97214"},{"lat":"37.2091124","lng":"-93.2313345","id":1404315,"name":"JOHNSTON INDUST. SUP. - MO","address":"3121 E. CAIRO","country":"USA","state":"MO","city":"SPRINGFIELD","postal":"65802"},{"lat":"34.9617817","lng":"-81.908476","id":1404316,"name":"KENNEDY'S SUPPLY","address":"123 WHITES MILL WAY","country":"USA","state":"SC","city":"SPARTANBURG","postal":"29307"},{"lat":"49.0640177","lng":"-122.6996528","id":1404317,"name":"A.R. THOMSON LTD.","address":"3420-189 STREET\n\nCOUNTRY OF ORIGIN USA","country":"CANADA","state":"BC","city":"SURREY","postal":"V3S2K2"},{"lat":"47.256786","lng":"-122.425848","id":1404318,"name":"STELLAR INDUSTRIAL SUPPLY","address":"711 EAST 11TH STREET\nSUPPLIER ID# 105580","country":"USA","state":"WA","city":"TACOMA","postal":"98421-2403"},{"lat":"49.1734768","lng":"-122.6999043","id":1404319,"name":"NEW LINE HOSE & FITTINGS","address":"9415-189TH STREET\nATTN: ACCOUNTS PAYABLE","country":"CANADA","state":"BC","city":"SURREY","postal":"V4N 5L8"},{"lat":"36.9581648","lng":"-86.4880457","id":1404320,"name":"BOWLING GREEN RUB & GASKET CO","address":"2701 GRIFFIN DR.","country":"USA","state":"KY","city":"BOWLING GREEN","postal":"42101"},{"lat":"25.140693","lng":"55.240414","id":1404321,"name":"SEALMECH TRADING LLC","address":"SHOW ROOM # S-07, AL QUOZ INDUSTRIAL AREA 1, AL ASAYAL STREET, 318TH ROAD, (D72),NEAR OLD NATIONAL TAXI SIGNAL - DUBAI - UNITED ARAB EMIRATES","country":"UNITED ARAB EMIRATES","city":"DUBAI"},{"lat":"28.503491","lng":"-81.3791911","id":1404322,"name":"AIR PRODUCTS & EQUIPMENT, INC","address":"165 DRENNEN ROAD\nORLANDO FL 32806"},{"lat":"25.1587977","lng":"55.2397317","id":1404323,"name":"AL SAYEGH TRADING CO. LLC","address":"AL QUOUZ 3","country":"UNITED ARAB EMIRATES","city":"DUBAI"},{"lat":"41.1729661","lng":"-83.421307","id":1404324,"name":"BIG BEAR MUFFLER INC.","address":"1313 NORTH COUNTYLINE STREET","country":"USA","state":"OH","city":"FOSTORIA","postal":"44830"},{"lat":"45.556025","lng":"-62.6839","id":1404325,"name":"BDI CANADA INC.","address":"101 MCGREGOR AVE.\nSUITE 1","country":"CANADA","state":"ON","city":"STELLARTON, NS","postal":"B0K 1S0"},{"lat":"38.6297528","lng":"-90.2205825","id":1404326,"name":"TIEMANN INDUSTRIAL SUPPLY INC","address":"2811 CLARK AVE","country":"USA","state":"MO","city":"ST. LOUIS","postal":"63103"},{"lat":"42.9778841","lng":"-82.4600861","id":1404327,"name":"MARSHALL E. CAMPBELL CO., INC.","address":"2975 LAPEER RD","country":"USA","state":"MI","city":"PORT HURON","postal":"48060"},{"lat":"37.766457","lng":"-87.112081","id":1404328,"name":"BIG RIVER RUBBER & GASKET CO.","address":"214 WEST 10TH STREET","country":"USA","state":"KY","city":"OWENSBORO","postal":"42303"},{"lat":"40.6886149","lng":"-74.3186251","id":1404329,"name":"COLONIAL HARDWARE CORPORATION","address":"33 COMMERCE STREET","country":"USA","state":"NJ","city":"SPRINGFIELD","postal":"7081"},{"lat":"37.6789215","lng":"-85.8961384","id":1404330,"name":"GENERAL RUB & PLASTICS ELIZABETHTOWN","address":"205 CORPORATE DR","country":"USA","state":"KY","city":"ELIZABETHTOWN","postal":"42701"},{"lat":"36.3140367","lng":"-82.3524366","id":1404331,"name":"SUMMERS HARDWARE AND SUPPLY CO","address":"400 BUFFALO ST","country":"USA","state":"TN","city":"JOHNSON CITY","postal":"37604"},{"lat":"41.4778488","lng":"-81.7705089","id":1404332,"name":"BEACON GASKET","address":"1610 COUTANT AVE.","country":"USA","state":"OH","city":"LAKEWOOD","postal":"44107"},{"lat":"41.0096647","lng":"-81.7503582","id":1404333,"name":"CORNWELL QUALITY TOOLS","address":"667 SEVILLE RD, WADSWORTH, OH 44281"},{"lat":"41.6104636","lng":"-93.5907215","id":1404334,"name":"DECO TOOL SUPPLY COMPANY","address":"1701 EAST 17TH STREET","country":"USA","state":"IA","city":"DES MOINES","postal":"50316"},{"lat":"33.3146111","lng":"-86.8029283","id":1404335,"name":"MOTION INDUSTRIES","address":"138 CORPORATE WAY","country":"USA","state":"AL","city":"PELHAM","postal":"35124"},{"lat":"40.8127594","lng":"-73.661531","id":1404336,"name":"WESCO INTEGRATED","address":"36 HARBOR PARK DRIVE","country":"USA","state":"NY","city":"PORT WASHINGTON","postal":"11050"},{"lat":"40.5197019","lng":"-80.1642261","id":1404337,"name":"ANCHOR SEALS, INC","address":"920 SECOND AVE","country":"USA","state":"PA","city":"CORAOPOLIS","postal":"15108"},{"lat":"35.629984","lng":"-88.9025209","id":1404338,"name":"HCI SUPPLY COMPANY","address":"982 LOWER BROWNSVILLE RD, JACKSON, TN 38301"},{"lat":"40.8141906","lng":"-74.3822681","id":1404339,"name":"OMEGA INTERNATIONAL LLC","address":"50 WILLIAMS PKWY","country":"USA","state":"NJ","city":"EAST HANOVER","postal":"7936"},{"lat":"43.0845053","lng":"-77.5922298","id":1404340,"name":"ROCHESTER INDUST. SUPPLY CO.","address":"65 SAGINAW DRIVE","country":"USA","state":"NY","city":"ROCHESTER","postal":"14623"},{"lat":"42.0077631","lng":"-88.2930201","id":1404341,"name":"WEST SIDE INDUSTRIAL SUPPLY","address":"1530 N LA FOX ST, SOUTH ELGIN, IL 60177"},{"lat":"44.9041378","lng":"-89.5534851","id":1404342,"name":"CCT ENTERPRISES, INC. (DIV)","address":"5507 SCHOFIELD AVE.","country":"USA","state":"WI","city":"SCHOFIELD","postal":"54476"},{"lat":"42.2264082","lng":"-85.535754","id":1404343,"name":"DEPATIE FLUID POWER","address":"6256 AMERICAN AVE, PORTAGE, MI 49002"},{"lat":"39.936263","lng":"-82.941501","id":1404344,"name":"SPARTAN TOOL","address":"1660 ALUM CREEK DR","country":"USA","state":"OH","city":"COLUMBUS","postal":"43209"},{"lat":"34.7102012","lng":"-84.962488","id":1404345,"name":"MORGAN-LEE SUPPLY","address":"2590 ABUTMENT ROAD","country":"USA","state":"GA","city":"DALTON","postal":"30721"},{"lat":"35.2261184","lng":"-81.1996837","id":1404346,"name":"CITY FIRE & SAFETY","address":"3503 S. YORK RD","country":"USA","state":"NC","city":"GASTONIA","postal":"28052"},{"lat":"36.0359615","lng":"-79.7868566","id":1404347,"name":"SHERRILL, INC","address":"200 SENECA ROAD","country":"USA","state":"NC","city":"GREENSBORO","postal":"27406"},{"lat":"32.8515975","lng":"-79.9712088","id":1404348,"name":"ALLEN & WEBB INDUSTRIAL SUPPLY","address":"3127 RIVERS AVENUE","country":"USA","state":"SC","city":"N. CHARLESTON","postal":"29405"},{"lat":"41.8435108","lng":"-87.9519365","id":1404349,"name":"ACE HARDWARE CORP. #3036","address":"2200 KENSINGTON COURT\nOAKBROOK IL 60523"},{"lat":"40.17396","lng":"-80.2461714","id":1404350,"name":"FAIRMONT SUPPLY COMPANY","address":"437 JEFFERSON AVE\nREC HOURS M-T 7-2\/F 7-12","country":"USA","state":"PA","city":"WASHINGTON","postal":"15301"},{"lat":"41.2394507","lng":"-79.4258415","id":1404351,"name":"SWAB SUPPLY","address":"101 AMSLER AVE","country":"USA","state":"PA","city":"SHIPPENVILLE","postal":"16254"},{"lat":"31.8373413","lng":"-102.3829931","id":1404352,"name":"B-LINE FILTER & SUPPLY","address":"1509 W 2ND","country":"USA","state":"TX","city":"ODESSA","postal":"79763"},{"lat":"41.4201343","lng":"-81.7261553","id":1404353,"name":"ORNAMENTAL PRODUCTS TOOL & SUPPLY","address":"5105 PEARL ROAD","country":"USA","state":"OH","city":"CLEVELAND","postal":"44129"},{"lat":"42.2732707","lng":"-89.0927242","id":1404354,"name":"SUPPLYCORE INC","address":"303 N MAIN ST #800, ROCKFORD, IL 61101"},{"lat":"40.7770931","lng":"-73.4112069","id":1404355,"name":"MSC INDUSTRIAL SUPPLY","address":"75 MAXESS ROAD","country":"USA","state":"NY","city":"MELVILLE","postal":"11747-3151"},{"lat":"44.2036551","lng":"-72.5095499","id":1404356,"name":"GRANITE CITY TOOL CO.","address":"5-11 BLACKWELL STREET","country":"USA","state":"VT","city":"BARRE","postal":"5641"},{"lat":"37.244023","lng":"-96.95495","id":1404357,"name":"SOURCE ONE DISTRIBUTORS","address":"511 INDUSTRIAL ROAD","country":"USA","state":"KS","city":"WINFIELD","postal":"67156"},{"lat":"42.5530418","lng":"-83.1648163","id":1404358,"name":"WRIGHT TOOL COMPANY","address":"1311 MAPLELAWN DR, TROY, MI 48084"},{"lat":"39.7106168","lng":"-86.0641517","id":1404359,"name":"MEYER MATERIAL HANDLING","address":"3904 S ARLINGTON AVE, INDIANAPOLIS, IN 46203","country":"USA","state":"MI","city":"BELLEVILLE","postal":"48111"},{"lat":"42.0846509","lng":"-86.4837805","id":1404360,"name":"MATERIALS RESOURCES","address":"815 LESTER AVE, ST JOSEPH, MI 49085"},{"lat":"32.5466292","lng":"-84.8722891","id":1404361,"name":"CAIL TOOL & MACHINE INC.","address":"6943 FLAT ROCK ROAD","country":"USA","state":"GA","city":"MIDLAND","postal":"31820"},{"lat":"45.4787","lng":"-73.7769102","id":1404362,"name":"G2S EQUIPMENT","address":"1895 CHEMIN ST FRANCOIS","country":"CANADA","state":"QC","city":"DORVAL","postal":"H9P 1K3"},{"lat":"27.8655128","lng":"-82.7388444","id":1404363,"name":"SUNCOAST PRECISION TOOLS INC,","address":"10360 72ND ST #809, SEMINOLE, FL 33777"},{"lat":"42.9148147","lng":"-72.2984593","id":1404364,"name":"CHOICE INDUSTR. SOLUTIONS INC.","address":"20 BRADCO STREET","country":"USA","state":"NH","city":"KEENE","postal":"3431"},{"lat":"30.164459","lng":"-91.973245","id":1404365,"name":"SHANNON HARDWARE","address":"101 NOLAN ROAD","country":"USA","state":"LA","city":"BROUSSARD","postal":"70518"},{"lat":"43.1079764","lng":"-89.3175033","id":1404366,"name":"F.I.C. SUPPLY COMPANY","address":"3948 COMMERCIAL AVE, MADISON, WI 53714"},{"lat":"32.5367865","lng":"-93.7665642","id":1404367,"name":"TRI-STATE INDUSTRIAL SUPPLY","address":"1510 GRIMMETT DR, SHREVEPORT, LA 71107"},{"lat":"35.6103039","lng":"-88.9081148","id":1404368,"name":"COMPRESSORS & TOOLS, INC.","address":"109 ANGLIN LN, JACKSON, TN 38301"},{"lat":"40.0641438","lng":"-76.3237922","id":1404369,"name":"POWER-DRAULICS","address":"1279 MANHEIM PIKE","country":"USA","state":"PA","city":"LANCASTER","postal":"17601"},{"lat":"31.7001616","lng":"-89.1525259","id":1404370,"name":"B & R INDUSTRIAL SUPPLY","address":"2018 W 10TH ST","country":"USA","state":"MS","city":"LAUREL","postal":"39440"},{"lat":"40.0072172","lng":"-82.8902904","id":1404371,"name":"BLAST ONE","address":"4510 BRIDGEWAY AVE, COLUMBUS, OH 43219"},{"lat":"41.0819749","lng":"-85.1444928","id":1404372,"name":"NOWAK SUPPLY","address":"302 W SUPERIOR STREET","country":"USA","state":"IN","city":"FT WAYNE","postal":"46802"},{"lat":"35.9258384","lng":"-80.0208991","id":1404373,"name":"AIR POWER INC - NC","address":"1430 TRINITY AVENUE","country":"USA","state":"NC","city":"HIGH POINT","postal":"27260"},{"lat":"40.7757454","lng":"-73.5182294","id":1404374,"name":"GERARD PACKING & BELTING CORP.","address":"24 MIDLAND AVE\nBARBARA STEVICK","country":"USA","state":"NY","city":"HICKSVILLE","postal":"11801"},{"lat":"40.9133771","lng":"-98.3800726","id":1404375,"name":"OPTIMAS OE SOLUTIONS \/ ANIXTER","address":"3319 ISLAND CIRCLE","country":"USA","state":"NE","city":"GRAND ISLAND","postal":"68803"},{"lat":"30.2117343","lng":"-90.9862159","id":1404376,"name":"CYPRESS EQUIPMENT SERVICE INC","address":"6012 INDUSTRIAL DR, GEISMAR, LA 70734"},{"lat":"31.1766508","lng":"-85.3992611","id":1404377,"name":"SERVICE INDUSTRIAL SUPPLY","address":"184 E. INEZ ROAD","country":"USA","state":"AL","city":"DOTHAN","postal":"36301"},{"lat":"22.3167031","lng":"-97.8762417","id":1404378,"name":"BOXHER SERVICIOS S.A","address":"CALLE PALMA #510\nCOL DEL BOSQUE","country":"MEXICO","city":"TAMPICO","postal":"89318"},{"lat":"32.6924904","lng":"-115.4960055","id":1404379,"name":"PACIFIC INDUSTRIAL PARTS & SUPPLIES","address":"221 AVENIDA CAMPILLO ST.\nSUITE C","country":"USA","state":"CA","city":"CALEXICO","postal":"92231"},{"lat":"31.861813","lng":"-102.3776671","id":1404380,"name":"ENGINE SERVICE & SUPPLY CO","address":"1902 ANDREWS HIGHWAY\nJUANITA STERLING, PAYABLES","country":"USA","state":"TX","city":"ODESSA","postal":"79761"},{"lat":"29.8418366","lng":"-95.5008463","id":1404381,"name":"DXP ENTERPRISES, INC.","address":"7272 PINEMONT","country":"USA","state":"TX","city":"HOUSTON","postal":"77040"},{"lat":"42.220537","lng":"-88.27422","id":1404382,"name":"ROSS & WHITE COMPANY","address":"1090 ALEXANDER CT.","country":"USA","state":"IL","city":"CARY","postal":"60013"},{"lat":"47.5533919","lng":"-52.7733675","id":1404383,"name":"RIDEOUT TOOL & MACHINE INC.","address":"222 KENMOUNT ROAD","country":"CANADA","state":"NL","city":"ST. JOHNS","postal":"A1B-3R2"},{"lat":"33.6091557","lng":"-92.0445272","id":1404384,"name":"JOHNNY'S RADIATOR SHOP LLC","address":"3513, 1206 E CHURCH ST, WARREN, AR 71671"},{"lat":"45.5375551","lng":"-73.5425386","id":1404385,"name":"J. CARRIER FOURNITURES IND. INC.","address":"3075 STE CATHERINE EAST","country":"CANADA","state":"QC","city":"MONTREAL","postal":"H1W 3X6"},{"lat":"41.8999405","lng":"-87.7448149","id":1404386,"name":"O'LEARY'S CONTRACTORS EQUIP. & SUP,INC","address":"1031 N CICERO AVE, CHICAGO, IL 60651"},{"lat":"41.3049383","lng":"-76.0954165","id":1404387,"name":"RURAL TRUCK SALES & RENTAL","address":"1398 STATE ROUTE 29","country":"USA","state":"PA","city":"HUNLOCK CREEK","postal":"18621"},{"lat":"37.6484606","lng":"-122.4196054","id":1404388,"name":"KRAFT INDUSTRIAL SUPPLY","address":"200 SOUTH SPRUCE AVE - UNIT 3","country":"USA","state":"CA","city":"S SAN FRANCISCO","postal":"94080"},{"lat":"38.33805","lng":"-81.59938","id":1404389,"name":"MRC GLOBAL-WV","address":"835 HILLCREST DR E","country":"USA","state":"WV","city":"CHARLESTON","postal":"25311"},{"lat":"43.5694682","lng":"-116.2609266","id":1404390,"name":"MCCALL INDUSTRIAL SUPPLY CO.","address":"6372 W CONTRACTORS ST","country":"USA","state":"ID","city":"BOISE","postal":"83709"},{"lat":"38.244725","lng":"-85.745398","id":1404391,"name":"ULAND SUPPLY","address":"500 E BROADWAY, LOUISVILLE, KY 40202"},{"lat":"28.4228599","lng":"-81.3823006","id":1404392,"name":"UNITED RENTALS INC- FL","address":"371 TAFT VINELAND ROAD","country":"USA","state":"FL","city":"ORLANDO","postal":"32824"},{"lat":"47.6810791","lng":"-117.2575076","id":1404393,"name":"ARONSON-CAMPBELL IND SUPP INC","address":"10925 E. MONTGOMERY","country":"USA","state":"WA","city":"SPOKANE","postal":"99206"},{"lat":"40.522187","lng":"-99.6448174","id":1404394,"name":"NEBRASKA CRANE- NCS","address":"73783 ROAD 438\nBERTRAND, NE 68927"},{"lat":"29.694483","lng":"-95.091784","id":1404395,"name":"MEDSAFE","address":"2101 S BATTLEGROUND RD","country":"USA","state":"TX","city":"LAPORTE","postal":"77571"},{"lat":"42.1978993","lng":"-71.1970217","id":1404396,"name":"KAUFMAN CO. INC.","address":"19 WALKHILL ROAD","country":"USA","state":"MA","city":"NORWOOD","postal":"02062-3522"},{"lat":"37.707507","lng":"-121.0978037","id":1404397,"name":"FLORY INDUSTRIES","address":"4737 TOOMES ROAD","country":"USA","state":"CA","city":"SALIDA","postal":"95368"},{"lat":"38.6660255","lng":"-87.1727488","id":1404398,"name":"INDIANA SAFETY CO.,INC.","address":"1001 NORTH E 3RD STREET","country":"USA","state":"IN","city":"WASHINGTON","postal":"47501"},{"lat":"34.2725043","lng":"-83.852935","id":1404399,"name":"KIPPER TOOL CO.","address":"2375 MURPHY BLVD","country":"USA","state":"GA","city":"GAINESVILLE","postal":"30504"},{"lat":"47.7587459","lng":"-122.3143699","id":1404400,"name":"INDUSTRIAL AIR SYSTEMS, INC","address":"DIVISION INDUSTRIAL AIR\n17739 15TH AVE NE","country":"USA","state":"WA","city":"SHORELINE","postal":"98155"},{"lat":"46.7308675","lng":"-71.289311","id":1404401,"name":"D.I.S. QUEBEC","address":"180 DES PEVENCHES","country":"CANADA","state":"QC","city":"LEVIS","postal":"G7A 3M3"},{"lat":"36.549517","lng":"-93.247725","id":1404402,"name":"MEMCO SAFETY SUPPLY","address":"296 CARLTON RD, HOLLISTER, MO 65672"},{"lat":"31.5870939","lng":"-84.079728","id":1404403,"name":"ALBANY INDUSTRIAL DIST., INC.","address":"514 CORDELE ROAD","country":"USA","state":"GA","city":"ALBANY","postal":"31705"},{"lat":"48.4145453","lng":"-89.2467821","id":1404404,"name":"INTERCITY INDUSTRIAL SUPPLY LIMITED","address":"669 SQUIER STREET\n\nNAFTA & INVOICE","country":"CANADA","state":"ON","city":"THUNDER BAY","postal":"P7B 6T9"},{"lat":"40.2811648","lng":"-75.2983051","id":1404405,"name":"ELECTROSTATICS","address":"63 EAST BROAD STREET\nSUITE 6","country":"USA","state":"PA","city":"HATFIELD","postal":"19440"},{"lat":"42.3759997","lng":"-71.2414093","id":1404406,"name":"EASTERN INDUSTRIAL AUTOMATION","address":"158 LEXINGTON AVENUE\nMAIN CORPORATE OFFICES","country":"USA","state":"MA","city":"WALTHAM","postal":"2454"},{"lat":"42.200533","lng":"-72.609581","id":1404407,"name":"FLN MAR RUBBER & PLASTICS INC.","address":"102 CABOT STREET","country":"USA","state":"MA","city":"HOLYOKE","postal":"1040"},{"lat":"40.4218244","lng":"-86.8497182","id":1404408,"name":"BAKER INDUSTRIAL SUPPLY","address":"581 N 36TH STREET","country":"USA","state":"IN","city":"LAFAYETTE","postal":"47905"},{"lat":"41.7865784","lng":"-85.4287604","id":1404409,"name":"A.B.'S  GLOVES & ABRASIVES INC","address":"1227 S. CENTERVILLE RD","country":"USA","state":"MI","city":"STURGIS","postal":"49091"},{"lat":"29.7039226","lng":"-95.2268715","id":1404410,"name":"PSS INDUSTRIAL GROUP (PSSI)","address":"513 VERMILLION","country":"USA","state":"TX","city":"PASADENA","postal":"77506"},{"lat":"44.8427239","lng":"-93.0220142","id":1404411,"name":"POWER DYNAMICS INC","address":"7365 CONCORD BLVD\nINVER GROVE  HEIGHTS MN 55076"},{"lat":"25.824932","lng":"-80.3253581","id":1404412,"name":"TOOLS AND EQUIPMENT SUPPLY","address":"5625 NW 79TH AVE, DORAL, FL 33166"}]